[{"site": {"city": "Flint", "name": "AC Spark Plug, Dort Highway Plant", "rating": 3, "state": "MI", "state_ap": "Mich.", "slug": "1-ac-spark-plug-dort-highway-plant"}, "locations": [{"latitude": 43.029380000000003, "longitude": -83.655249999999995, "postal_code": "48506", "name": "", "street_address": "1300 North Dort Highway"}]}, {"site": {"city": "Albuquerque", "name": "ACF Industries", "rating": 3, "state": "NM", "state_ap": "N.M.", "slug": "2-acf-industries"}, "locations": []}, {"site": {"city": "Buffalo", "name": "ACF Industries, Inc.", "rating": 3, "state": "NY", "state_ap": "N.Y.", "slug": "3-acf-industries-inc"}, "locations": []}, {"site": {"city": "Los Alamos", "name": "Acid/Pueblo Canyon", "rating": 1, "state": "NM", "state_ap": "N.M.", "slug": "4-acid-pueblo-canyon"}, "locations": [{"latitude": 35.888827300000003, "longitude": -106.3050223, "postal_code": "87544", "name": "", "street_address": "Pueblo Canyon"}]}, {"site": {"city": "West Chester", "name": "Aeroprojects, Inc.", "rating": 3, "state": "PA", "state_ap": "Pa.", "slug": "5-aeroprojects-inc"}, "locations": [{"latitude": 39.952953000000001, "longitude": -75.592749999999995, "postal_code": "19382", "name": "", "street_address": "200-T E. Rosedale Avenue"}]}, {"site": {"city": "New York", "name": "African Metals", "rating": 3, "state": "NY", "state_ap": "N.Y.", "slug": "6-african-metals"}, "locations": [{"latitude": 40.705708999999999, "longitude": -74.011083999999997, "postal_code": "10004", "name": "", "street_address": "41 Broad Street"}]}, {"site": {"city": "Evendale/Lockland", "name": "Air Force Plant No. 36", "rating": 2, "state": "OH", "state_ap": "Ohio", "slug": "7-air-force-plant-no-36"}, "locations": [{"latitude": 39.235129299999997, "longitude": -84.446190900000005, "postal_code": "", "name": "Former Building D", "street_address": "Adjacent to present-day Interstate 75 and approximately 12 miles north of downtown Cincinnati"}]}, {"site": {"city": "Youngstown", "name": "Ajax Magnethermic Corp.", "rating": 2, "state": "OH", "state_ap": "Ohio", "slug": "8-ajax-magnethermic-corp"}, "locations": [{"latitude": 41.060828000000001, "longitude": -80.637266999999994, "postal_code": "44512", "name": "", "street_address": "3991 Simon Road"}]}, {"site": {"city": "Talladega County", "name": "Alabama Ordnance Works", "rating": 3, "state": "AL", "state_ap": "Ala.", "slug": "9-alabama-ordnance-works"}, "locations": [{"latitude": null, "longitude": null, "postal_code": "35044", "name": "Former Alabama Ordnance Works", "street_address": "13,233 acres of land near the junction of Talladega Creek and the Coosa River"}]}, {"site": {"city": "Oxford", "name": "Alba Craft Shop", "rating": 1, "state": "OH", "state_ap": "Ohio", "slug": "10-alba-craft-shop"}, "locations": [{"latitude": 39.503487300000003, "longitude": -84.743858599999996, "postal_code": "45056", "name": "", "street_address": "10-14 West Rose Avenue"}]}, {"site": {"city": "Albany", "name": "Albany, Oregon, FUSRAP Site", "rating": 1, "state": "OR", "state_ap": "Ore.", "slug": "11-albany-oregon-fusrap-site"}, "locations": [{"latitude": 44.620821800000002, "longitude": -123.12091650000001, "postal_code": "97321", "name": "", "street_address": "1450 Queen Street"}]}, {"site": {"city": "Aliquippa", "name": "Aliquippa Forge", "rating": 1, "state": "PA", "state_ap": "Pa.", "slug": "12-aliquippa-forge"}, "locations": [{"latitude": 40.641370999999999, "longitude": -80.242936, "postal_code": "15001", "name": "", "street_address": "100 First Street"}]}, {"site": {"city": "Dunkirk", "name": "Allegheny-Ludlum Steel", "rating": 3, "state": "NY", "state_ap": "N.Y.", "slug": "13-allegheny-ludlum-steel"}, "locations": []}, {"site": {"city": "Watervliet ", "name": "Allegheny-Ludlum Steel", "rating": 3, "state": "NY", "state_ap": "N.Y.", "slug": "14-allegheny-ludlum-steel"}, "locations": [{"latitude": 42.714362999999999, "longitude": -73.718857999999997, "postal_code": "12189", "name": "", "street_address": "Spring Street Road"}]}, {"site": {"city": "Metropolis", "name": "Allied Chemical Corp. Plant", "rating": 2, "state": "IL", "state_ap": "Ill.", "slug": "16-allied-chemical-corp-plant"}, "locations": [{"latitude": 37.171525000000003, "longitude": -88.754982999999996, "postal_code": "62960", "name": "", "street_address": "2768 North U.S. Highway 45"}]}, {"site": {"city": "North Claymont", "name": "Allied Chemical and Dye Corp.", "rating": 3, "state": "DE", "state_ap": "Del.", "slug": "15-allied-chemical-and-dye-corp"}, "locations": [{"latitude": 39.808586200000001, "longitude": -75.434746200000006, "postal_code": "19703", "name": "", "street_address": "6300 Philadelphia Pike"}]}, {"site": {"city": "West Allis", "name": "Allis-Chalmers Co.", "rating": 3, "state": "WI", "state_ap": "Wis.", "slug": "17-allis-chalmers-co"}, "locations": []}, {"site": {"city": "New Kensington", "name": "Aluminum Co. of America (ALCOA)", "rating": 3, "state": "PA", "state_ap": "Pa.", "slug": "18-aluminum-co-of-america-alcoa"}, "locations": [{"latitude": 40.571815999999998, "longitude": -79.755538999999999, "postal_code": "15068-5447", "name": "Research Laboratory; New Kensington Works", "street_address": "600 Freeport Road ; 9th to 16th Streets, along the Allegheny River"}, {"latitude": 40.565613999999997, "longitude": -79.770240000000001, "postal_code": "15068", "name": "New Kensington Works", "street_address": "Pine and Ninth Streets"}]}, {"site": {"city": "Garwood", "name": "Aluminum Company of America (ALCOA), Garwood Plant", "rating": 3, "state": "NJ", "state_ap": "N.J.", "slug": "19-aluminum-company-of-america-alcoa-garwood-plant"}, "locations": []}, {"site": {"city": "McKinley County", "name": "Ambrosia Lake Mill Site", "rating": 2, "state": "NM", "state_ap": "N.M.", "slug": "20-ambrosia-lake-mill-site"}, "locations": [{"latitude": 35.4091162, "longitude": -107.7930393, "postal_code": "87013", "name": "Former Mill Site", "street_address": "Approximately 25 miles north of Grants, N.M., in the Ambrosia Lake Valley"}, {"latitude": 35.408976299999999, "longitude": -107.80014180000001, "postal_code": "", "name": "Disposal Cell", "street_address": "Just west of the former mill site"}]}, {"site": {"city": "Amchika Island", "name": "Amchitka Island Test Center", "rating": 2, "state": "AK", "state_ap": "Alaska", "slug": "21-amchitka-island-test-center"}, "locations": [{"latitude": 51.436560499999999, "longitude": 179.1800738, "postal_code": "", "name": "Long Shot Test Site", "street_address": "Amchitka Island"}, {"latitude": 51.416939900000003, "longitude": 179.1854275, "postal_code": "", "name": "Milrow Test Site", "street_address": "Amchitka Island"}, {"latitude": 51.470496900000001, "longitude": 179.10503629999999, "postal_code": "", "name": "Cannikin Test Site", "street_address": "Amchitka Island"}]}, {"site": {"city": "Indianapolis", "name": "American Bearing Corp.", "rating": 2, "state": "IN", "state_ap": "Ind.", "slug": "22-american-bearing-corp"}, "locations": [{"latitude": 39.760683, "longitude": -86.187273000000005, "postal_code": "46221", "name": "", "street_address": "429 South Harding Street"}]}, {"site": {"city": "Waterbury", "name": "American Brass Co.", "rating": 3, "state": "CT", "state_ap": "Conn.", "slug": "23-american-brass-co"}, "locations": [{"latitude": 41.555427999999999, "longitude": -73.046493999999996, "postal_code": "6702", "name": "", "street_address": "414 Meadow Street"}]}, {"site": {"city": "Bridgeport", "name": "American Chain and Cable Co.", "rating": 3, "state": "CT", "state_ap": "Conn.", "slug": "24-american-chain-and-cable-co"}, "locations": []}, {"site": {"city": "Stamford", "name": "American Cyanamid Co", "rating": 3, "state": "CT", "state_ap": "Conn.", "slug": "25-american-cyanamid-co"}, "locations": [{"latitude": 41.043905000000002, "longitude": -73.527292000000003, "postal_code": "06902", "name": "", "street_address": "205 Magee Avenue"}]}, {"site": {"city": "Brooklyn", "name": "American Machine & Foundry Co.", "rating": 3, "state": "NY", "state_ap": "N.Y.", "slug": "26-american-machine-foundry-co"}, "locations": [{"latitude": 40.646602000000001, "longitude": -74.020402000000004, "postal_code": "11220-2574", "name": "", "street_address": "Second Avenue and 56th Street"}]}, {"site": {"city": "Alexandria", "name": "American Machine and Foundry Co.", "rating": 2, "state": "VA", "state_ap": "Va.", "slug": "27-american-machine-and-foundry-co"}, "locations": [{"latitude": 38.816089300000002, "longitude": -77.040962500000006, "postal_code": "22314", "name": "", "street_address": "1101 N. Royal Street"}]}, {"site": {"city": "Buffalo", "name": "American Machine and Foundry Co.", "rating": 3, "state": "NY", "state_ap": "N.Y.", "slug": "28-american-machine-and-foundry-co"}, "locations": []}, {"site": {"city": "New York", "name": "American Machine and Foundry Co., Bus Terminal Office", "rating": 3, "state": "NY", "state_ap": "N.Y.", "slug": "29-american-machine-and-foundry-co-bus-terminal-office"}, "locations": [{"latitude": 40.756929999999997, "longitude": -73.990230999999994, "postal_code": "10018", "name": "", "street_address": "Port Authority"}]}, {"site": {"city": "E. Moline", "name": "American Machine and Metals, Inc.", "rating": 3, "state": "IL", "state_ap": "Ill.", "slug": "30-american-machine-and-metals-inc"}, "locations": []}, {"site": {"city": "Fort Worth", "name": "American Manufacturing Co. of Texas", "rating": 3, "state": "TX", "state_ap": "Texas", "slug": "31-american-manufacturing-co-of-texas"}, "locations": [{"latitude": 32.801699999999997, "longitude": -97.308449999999993, "postal_code": "76111", "name": "", "street_address": "3300 block of  N. Sylvania Avenue"}]}, {"site": {"city": "Moonachie", "name": "American Peddinghaus Corp.", "rating": 2, "state": "NJ", "state_ap": "N.J.", "slug": "32-american-peddinghaus-corp"}, "locations": []}, {"site": {"city": "West Hanover", "name": "American Potash & Chemical", "rating": 3, "state": "MA", "state_ap": "Mass.", "slug": "33-american-potash-chemical"}, "locations": []}, {"site": {"city": "New York", "name": "American Railway Express Office", "rating": 3, "state": "NY", "state_ap": "N.Y.", "slug": "34-american-railway-express-office"}, "locations": []}, {"site": {"city": "Grand Junction", "name": "American Smelting and Refining Co.", "rating": 2, "state": "CO", "state_ap": "Colo.", "slug": "35-american-smelting-and-refining-co"}, "locations": [{"latitude": 39.0549587, "longitude": -108.5491612, "postal_code": "81501", "name": "", "street_address": "Former Grand Junction mill site (precise location within the site unknown)"}]}, {"site": {"city": "Cincinnati", "name": "American Steel Foundries, Elmes-King Division", "rating": 3, "state": "OH", "state_ap": "Ohio", "slug": "36-american-steel-foundries-elmes-king-division"}, "locations": [{"latitude": 39.169699700000002, "longitude": -84.479198499999995, "postal_code": "45229", "name": "Former American Steel Foundries Site", "street_address": "1150 Tennessee Street"}]}, {"site": {"city": "Ames", "name": "Ames Laboratory Research Reactor Facility", "rating": 2, "state": "IA", "state_ap": "Iowa", "slug": "37-ames-laboratory-research-reactor-facility"}, "locations": [{"latitude": 42.041269, "longitude": -93.663619999999995, "postal_code": "50011", "name": "", "street_address": "35-acre open site about 1.5 miles from the Iowa State University campus"}]}, {"site": {"city": "Coldwater", "name": "Amex Specialty Metal Corp.", "rating": 3, "state": "MI", "state_ap": "Mich.", "slug": "38-amex-specialty-metal-corp"}, "locations": [{"latitude": 41.929321000000002, "longitude": -85.014988000000002, "postal_code": "49036", "name": "", "street_address": "460 Jay Street"}]}, {"site": {"city": "Baltimore", "name": "Armco-Rustless Iron and Steel", "rating": 3, "state": "MD", "state_ap": "Md.", "slug": "39-armco-rustless-iron-and-steel"}, "locations": [{"latitude": 39.305419999999998, "longitude": -76.565430000000006, "postal_code": "21213-4002", "name": "", "street_address": "3501 East Biddle Street"}]}, {"site": {"city": "Bartow", "name": "Armour Fertilizer Works", "rating": 2, "state": "FL", "state_ap": "Fla.", "slug": "40-armour-fertilizer-works"}, "locations": [{"latitude": 27.903278, "longitude": -81.880793999999995, "postal_code": "33830", "name": "", "street_address": "2550 Highway 60 West"}]}, {"site": {"city": "Chicago", "name": "Armour Research Foundation", "rating": 2, "state": "IL", "state_ap": "Ill.", "slug": "41-armour-research-foundation"}, "locations": [{"latitude": 41.831004, "longitude": -87.626852999999997, "postal_code": "60616", "name": "", "street_address": "3424 South State St"}]}, {"site": {"city": "San Francisco", "name": "Arthur D. Little Co.", "rating": 3, "state": "CA", "state_ap": "Calif.", "slug": "42-arthur-d-little-co"}, "locations": [{"latitude": 37.794389000000002, "longitude": -122.400205, "postal_code": "94111", "name": "", "street_address": "322 Battery Street"}]}, {"site": {"city": "Fairfield", "name": "Associated Aircraft Tool and Manufacturing Co.", "rating": 1, "state": "OH", "state_ap": "Ohio", "slug": "44-associated-aircraft-tool-and-manufacturing-co"}, "locations": [{"latitude": 39.361063000000001, "longitude": -84.540750000000003, "postal_code": "45014", "name": "", "street_address": "3660 Dixie Highway"}]}, {"site": {"city": "Columbus", "name": "B & T Metals", "rating": 1, "state": "OH", "state_ap": "Ohio", "slug": "45-b-t-metals"}, "locations": [{"latitude": 39.957354100000003, "longitude": -83.0114552, "postal_code": "43215", "name": "", "street_address": "425 West Town Street"}]}, {"site": {"city": "Lynchburg", "name": "BWX Technologies", "rating": 2, "state": "VA", "state_ap": "Va.", "slug": "88-bwx-technologies"}, "locations": [{"latitude": 37.413906599999997, "longitude": -79.062547300000006, "postal_code": "24504", "name": "", "street_address": "1570 Mount Athos Road"}]}, {"site": {"city": "Beaver Falls", "name": "Babcock and Wilcox Co", "rating": 3, "state": "PA", "state_ap": "Pa.", "slug": "46-babcock-and-wilcox-co"}, "locations": [{"latitude": 40.780607000000003, "longitude": -80.326136000000005, "postal_code": "15010", "name": "", "street_address": "4029 4th Avenue"}]}, {"site": {"city": "Bound Brook", "name": "Bakelite Corp.", "rating": 3, "state": "NJ", "state_ap": "N.J.", "slug": "47-bakelite-corp"}, "locations": []}, {"site": {"city": "Toledo", "name": "Baker Brothers", "rating": 1, "state": "OH", "state_ap": "Ohio", "slug": "50-baker-brothers"}, "locations": [{"latitude": 41.672189000000003, "longitude": -83.568624999999997, "postal_code": "43610", "name": "Doug Beat Co.", "street_address": "2551-2555 Harleau Place"}]}, {"site": {"city": "Saginaw", "name": "Baker Perkins Co.", "rating": 3, "state": "MI", "state_ap": "Mich.", "slug": "51-baker-perkins-co"}, "locations": [{"latitude": 43.400281200000002, "longitude": -83.952724000000003, "postal_code": "48601-3729", "name": "", "street_address": "1000 Hess Avenue"}]}, {"site": {"city": "Newark", "name": "Baker and Company", "rating": 3, "state": "NJ", "state_ap": "N.J.", "slug": "48-baker-and-company"}, "locations": [{"latitude": 40.720790999999998, "longitude": -74.179360000000003, "postal_code": "07114", "name": "", "street_address": "113 Astor Street"}]}, {"site": {"city": "New York", "name": "Baker and Williams Warehouses", "rating": 1, "state": "NY", "state_ap": "N.Y.", "slug": "49-baker-and-williams-warehouses"}, "locations": [{"latitude": 40.746102, "longitude": -74.006641500000001, "postal_code": "10011", "name": "", "street_address": "513-519, 521-527, and 529-535 West 20th Street"}]}, {"site": {"city": "Swarthmore", "name": "Bartol Research Foundation", "rating": 3, "state": "PA", "state_ap": "Pa.", "slug": "52-bartol-research-foundation"}, "locations": [{"latitude": 39.907325, "longitude": -75.353926000000001, "postal_code": "19081-1397", "name": "", "street_address": " Swarthmore College"}]}, {"site": {"city": "Columbus", "name": "Battelle Laboratories-King Avenue", "rating": 2, "state": "OH", "state_ap": "Ohio", "slug": "53-battelle-laboratories-king-avenue"}, "locations": [{"latitude": 39.990650000000002, "longitude": -83.019990000000007, "postal_code": "43201", "name": "", "street_address": "King Avenue"}]}, {"site": {"city": "West Jefferson", "name": "Battelle Laboratories-West Jefferson Plutonium Facilities", "rating": 2, "state": "OH", "state_ap": "Ohio", "slug": "54-battelle-laboratories-west-jefferson-plutonium-facilities"}, "locations": [{"latitude": 39.967500000000001, "longitude": -83.25, "postal_code": "43162", "name": "", "street_address": "1425 State Route 142 NE"}]}, {"site": {"city": "Los Alamos", "name": "Bayo Canyon, New Mexico, FUSRAP Site", "rating": 1, "state": "NM", "state_ap": "N.M.", "slug": "55-bayo-canyon-new-mexico-fusrap-site"}, "locations": [{"latitude": 35.899724900000002, "longitude": -106.29012710000001, "postal_code": "87544", "name": "", "street_address": "Bayo Canyon"}]}, {"site": {"city": "Belfield", "name": "Belfield Mill Site", "rating": 2, "state": "ND", "state_ap": "N.D.", "slug": "56-belfield-mill-site"}, "locations": [{"latitude": 46.881552999999997, "longitude": -103.182017, "postal_code": "58622", "name": "", "street_address": "Approximately 1 mile southeast of Belfield, ND"}]}, {"site": {"city": "Murray Hill", "name": "Bell Telephone Laboratories", "rating": 2, "state": "NJ", "state_ap": "N.J.", "slug": "57-bell-telephone-laboratories"}, "locations": [{"latitude": 40.683798000000003, "longitude": -74.402263000000005, "postal_code": "07974-2008", "name": "", "street_address": "600 Mountain Avenue"}]}, {"site": {"city": "Brooklyn", "name": "Belmont Smelting and Refining Works, Inc.", "rating": 3, "state": "NY", "state_ap": "N.Y.", "slug": "58-belmont-smelting-and-refining-works-inc"}, "locations": [{"latitude": 40.669735000000003, "longitude": -73.897766000000004, "postal_code": "11207", "name": "", "street_address": "330 Belmont Avenue"}]}, {"site": {"city": "Teterboro", "name": "Bendix Aviation Corp., Eclipse-Pioneer Division", "rating": 2, "state": "NJ", "state_ap": "N.J.", "slug": "147-bendix-aviation-corp-eclipse-pioneer-division"}, "locations": [{"latitude": 40.861239900000001, "longitude": -74.062698600000004, "postal_code": "07608", "name": "Former Allied Bendix Aerospace Corporation Site", "street_address": "Industrial Avenue and Williams Avenue (NJ 46)"}, {"latitude": 40.856649099999998, "longitude": -74.067958500000003, "postal_code": "07608", "name": "Former Sumitomo Machinery Corporation of America Site", "street_address": "7 Malcolm Avenue"}, {"latitude": 40.857689899999997, "longitude": -74.066147999999998, "postal_code": "07608", "name": "Former Metpath Incorporated Site", "street_address": "1 Malcolm Avenue"}]}, {"site": {"city": "Baltimore", "name": "Bendix Aviation Corporation, Frieze Division", "rating": 3, "state": "MD", "state_ap": "Md.", "slug": "61-bendix-aviation-corporation-frieze-division"}, "locations": [{"latitude": 39.382919999999999, "longitude": -76.568550000000002, "postal_code": "21204", "name": "", "street_address": "1400 Taylor Avenue"}]}, {"site": {"city": "Kansas City", "name": "Bendix Aviation Corporation, Kansas City Plant", "rating": 2, "state": "MO", "state_ap": "Mo.", "slug": "60-bendix-aviation-corporation-kansas-city-plant"}, "locations": [{"latitude": 38.956037999999999, "longitude": -94.572630000000004, "postal_code": "64131-3030", "name": "", "street_address": "1500 and 2000 East Bannister Road"}]}, {"site": {"city": "Davenport", "name": "Bendix Aviation Corporation, Pioneer Division", "rating": 3, "state": "IA", "state_ap": "Iowa", "slug": "59-bendix-aviation-corporation-pioneer-division"}, "locations": []}, {"site": {"city": "Reading", "name": "Beryllium Corporation", "rating": 3, "state": "PA", "state_ap": "Pa.", "slug": "63-beryllium-corporation"}, "locations": [{"latitude": 40.406216999999998, "longitude": -75.932516000000007, "postal_code": "19612-3367", "name": "", "street_address": "150 Tuckerton Road"}]}, {"site": {"city": "Beloit", "name": "Besley-Welles", "rating": 3, "state": "WI", "state_ap": "Wis.", "slug": "64-besly-welles"}, "locations": []}, {"site": {"city": "Lackawanna", "name": "Bethlehem Steel Corporation, Lackawanna Plant", "rating": 3, "state": "NY", "state_ap": "N.Y.", "slug": "65-bethlehem-steel-corporation-lackawanna-plant"}, "locations": [{"latitude": 42.783496, "longitude": -78.851665999999994, "postal_code": "14218", "name": "", "street_address": "1,100 acre site on the shores of Lake Erie"}]}, {"site": {"city": "West Mifflin", "name": "Bettis Atomic Power Laboratories", "rating": 2, "state": "PA", "state_ap": "Pa.", "slug": "66-bettis-atomic-power-laboratories"}, "locations": [{"latitude": 40.356068999999998, "longitude": -79.899872000000002, "postal_code": " 15122", "name": "", "street_address": "814 Pittsburgh McKeesport Boulevard"}]}, {"site": {"city": "Chicago", "name": "Billings Hospital", "rating": 3, "state": "IL", "state_ap": "Ill.", "slug": "68-billings-hospital"}, "locations": [{"latitude": 41.788381999999999, "longitude": -87.602525, "postal_code": "60637", "name": "", "street_address": "950 East 59th Street"}]}, {"site": {"city": "Birdsboro", "name": "Birdsboro Steel and Foundry", "rating": 3, "state": "PA", "state_ap": "Pa.", "slug": "69-birdsboro-steel-and-foundry"}, "locations": []}, {"site": {"city": "Buffalo", "name": "Bliss and Laughlin Steel", "rating": 1, "state": "NY", "state_ap": "N.Y.", "slug": "70-bliss-and-laughlin-steel"}, "locations": [{"latitude": 42.841146999999999, "longitude": -78.834059999999994, "postal_code": "14220", "name": "", "street_address": "110 Hopkins Street"}]}, {"site": {"city": "Joliet", "name": "Blockson Chemical Co.", "rating": 2, "state": "IL", "state_ap": "Ill.", "slug": "71-blockson-chemical-co"}, "locations": [{"latitude": 41.489516999999999, "longitude": -88.117904999999993, "postal_code": " 60436", "name": "", "street_address": "1945 Patterson Road"}]}, {"site": {"city": "Bloomfield", "name": "Bloomfield Tool Corp.", "rating": 3, "state": "NJ", "state_ap": "N.J.", "slug": "72-bloomfield-tool-corp"}, "locations": []}, {"site": {"city": "Cibola County", "name": "Bluewater AEC Ore Buying Station", "rating": 2, "state": "NM", "state_ap": "N.M.", "slug": "73-blue-water-aec-ore-buying-station"}, "locations": [{"latitude": 35.258115599999996, "longitude": -107.9512247, "postal_code": "87005", "name": "Former Plant/Mill Site", "street_address": "Approximately 1.5 miles northeast of Bluewater, N.M."}, {"latitude": 35.269924199999998, "longitude": -107.9472765, "postal_code": "87005", "name": "Main Disposal Cell", "street_address": "Approximately 1.5 miles northeast of Bluewater, N.M."}]}, {"site": {"city": "North Branch", "name": "Bowen Engineering, Inc.", "rating": 3, "state": "NJ", "state_ap": "N.J.", "slug": "74-bowen-engineering-inc"}, "locations": []}, {"site": {"city": "Bowman", "name": "Bowman Mill Site", "rating": 2, "state": "ND", "state_ap": "N.D.", "slug": "75-bowman-mill-site"}, "locations": [{"latitude": 46.215890000000002, "longitude": -103.5429165, "postal_code": "58651", "name": "", "street_address": "Approximately 7 miles northwest of Bowman, ND"}]}, {"site": {"city": "Yonkers", "name": "Boyce Thompson Institute for Plant Research", "rating": 3, "state": "NY", "state_ap": "N.Y.", "slug": "76-boyce-thompson-institute-for-plant-research"}, "locations": [{"latitude": 40.971676000000002, "longitude": -73.882734999999997, "postal_code": "10701", "name": "", "street_address": "1086 North Broadway"}]}, {"site": {"city": "Adrian", "name": "Bridgeport Brass Co.", "rating": 1, "state": "MI", "state_ap": "Mich.", "slug": "78-bridgeport-brass-co"}, "locations": [{"latitude": 41.888101599999999, "longitude": -84.016479200000006, "postal_code": "49221-3562", "name": "", "street_address": "1450 East Beecher Street"}]}, {"site": {"city": "Bridgeport", "name": "Bridgeport Brass Co., Havens Laboratory", "rating": 3, "state": "CT", "state_ap": "Conn.", "slug": "77-bridgeport-brass-co-havens-laboratory"}, "locations": [{"latitude": 41.183960999999996, "longitude": -73.182876699999994, "postal_code": "06608", "name": "Nearest intersection", "street_address": "Kossuth and Pulaski Streets"}]}, {"site": {"city": "Upton", "name": "Brookhaven National Laboratory, Buildings 353, 354, 467, and 468", "rating": 2, "state": "NY", "state_ap": "N.Y.", "slug": "79-brookhaven-national-laboratory"}, "locations": []}, {"site": {"city": "Providence", "name": "Brown University, Metcalf Research Lab", "rating": 3, "state": "RI", "state_ap": "R.I.", "slug": "80-brown-university-metcalf-research-lab"}, "locations": [{"latitude": 41.826712999999998, "longitude": -71.400829999999999, "postal_code": "02912", "name": "", "street_address": "Waterman Street and Thayer Street"}]}, {"site": {"city": "Cleveland", "name": "Brush Beryllium Co.", "rating": 3, "state": "OH", "state_ap": "Ohio", "slug": "81-brush-beryllium-co"}, "locations": [{"latitude": 41.504736899999997, "longitude": -81.660887399999993, "postal_code": "44103", "name": "", "street_address": "3714 Chester Avenue"}, {"latitude": null, "longitude": null, "postal_code": "", "name": "", "street_address": "4201 Perkins Avenue"}, {"latitude": null, "longitude": null, "postal_code": "", "name": "", "street_address": "4201 Perkins Avenue"}]}, {"site": {"city": "Elmore", "name": "Brush Beryllium Co.", "rating": 3, "state": "OH", "state_ap": "Ohio", "slug": "82-brush-beryllium-co"}, "locations": [{"latitude": 41.4897019, "longitude": -83.216488400000003, "postal_code": "43416", "name": "", "street_address": "14710 W. Portage River South Road"}]}, {"site": {"city": "Lorain", "name": "Brush Beryllium Co.", "rating": 3, "state": "OH", "state_ap": "Ohio", "slug": "83-brush-beryllium-co"}, "locations": [{"latitude": 41.469838099999997, "longitude": -82.182986099999994, "postal_code": "44052", "name": "Former Brush Beryllium Plant", "street_address": "West First Street and Hamilton Avenue"}]}, {"site": {"city": "Detroit", "name": "Brush Beryllium Co.", "rating": 3, "state": "MI", "state_ap": "Mich.", "slug": "84-brush-beryllium-co"}, "locations": []}, {"site": {"city": "Buffalo", "name": "Buflovak Co.", "rating": 3, "state": "NY", "state_ap": "N.Y.", "slug": "85-buflovak-co"}, "locations": [{"latitude": 42.916472900000002, "longitude": -78.837552400000007, "postal_code": "14211", "name": "", "street_address": "1543 Fillmore Avenue"}]}, {"site": {"city": "Kingsburg", "name": "Burris Park Field Station", "rating": 3, "state": "CA", "state_ap": "Calif.", "slug": "87-burris-park-field-station"}, "locations": [{"latitude": 36.450299600000001, "longitude": -119.5753557, "postal_code": "93631", "name": "Burris Park", "street_address": "Burris Park Dr."}]}, {"site": {"city": "Chicago", "name": "C-B Tool Products Co.", "rating": 3, "state": "IL", "state_ap": "Ill.", "slug": "89-c-b-tool-products-co"}, "locations": [{"latitude": null, "longitude": null, "postal_code": "60637", "name": "", "street_address": "956 East 58th Street"}]}, {"site": {"city": "Graniteville", "name": "C. G. Sargent & Sons", "rating": 3, "state": "MA", "state_ap": "Mass.", "slug": "90-c-g-sargent-sons"}, "locations": []}, {"site": {"city": "Cranston", "name": "C. I. Hayes, Inc.", "rating": 3, "state": "RI", "state_ap": "R.I.", "slug": "91-c-i-hayes-inc"}, "locations": [{"latitude": 41.767543099999997, "longitude": -71.428698100000005, "postal_code": "02910 ", "name": "", "street_address": "800 Wellington Ave."}]}, {"site": {"city": "Springdale", "name": "C.H. Schnorr", "rating": 1, "state": "PA", "state_ap": "Pa.", "slug": "92-ch-schnorr"}, "locations": [{"latitude": 40.537610899999997, "longitude": -79.782093700000004, "postal_code": "15144", "name": "", "street_address": "644 Garfield Street"}]}, {"site": {"city": "Pasadena", "name": "California Institute of Technology", "rating": 2, "state": "CA", "state_ap": "Calif.", "slug": "93-california-institute-of-technology"}, "locations": []}, {"site": {"city": "Richmond", "name": "California Research Corp.", "rating": 2, "state": "CA", "state_ap": "Calif.", "slug": "94-california-research-corp"}, "locations": [{"latitude": null, "longitude": null, "postal_code": "94801", "name": "", "street_address": "576 Standard Ave."}]}, {"site": {"city": "Union City", "name": "Callite Tungsten Co.", "rating": 3, "state": "NJ", "state_ap": "N.J.", "slug": "95-callite-tungsten-co"}, "locations": [{"latitude": null, "longitude": null, "postal_code": "", "name": "", "street_address": ""}]}, {"site": {"city": "Warren/Detroit", "name": "Carboloy Co.", "rating": 2, "state": "MI", "state_ap": "Mich.", "slug": "96-carboloy-co"}, "locations": [{"latitude": 42.449703, "longitude": -83.013991000000004, "postal_code": "48089", "name": "", "street_address": "11177 East Eight Mile Road"}]}, {"site": {"city": "Niagara Falls", "name": "Carborundum Company, Buffalo Ave. Plant", "rating": 2, "state": "NY", "state_ap": "N.Y.", "slug": "97-carborundum-company"}, "locations": [{"latitude": 43.0813183, "longitude": -79.036357600000002, "postal_code": "14303", "name": "", "street_address": "1801 Buffalo Avenue"}]}, {"site": {"city": "Saxonburg", "name": "Carnegie Institute of Technology, Nuclear Research Center", "rating": 3, "state": "PA", "state_ap": "Pa.", "slug": "98-carnegie-institute-of-technology"}, "locations": [{"latitude": 40.731642299999997, "longitude": -79.818319299999999, "postal_code": "16056-9499", "name": "Former Cyclotron Facility", "street_address": "375 Saxonburg Blvd.  "}]}, {"site": {"city": "Cold Spring Harbor", "name": "Carnegie Institute of Washington, Dept. of Genetics", "rating": 3, "state": "NY", "state_ap": "N.Y.", "slug": "99-carnegie-institute-of-washington-dept-of-genetics"}, "locations": []}, {"site": {"city": "Reading", "name": "Carpenter Steel Co.", "rating": 3, "state": "PA", "state_ap": "Pa.", "slug": "100-carpenter-steel-co"}, "locations": [{"latitude": 40.3610921, "longitude": -75.936966100000006, "postal_code": "19601", "name": "", "street_address": "101 West Bern Street"}]}, {"site": {"city": "Columbus", "name": "Case School of Applied Science Ohio State University", "rating": 2, "state": "OH", "state_ap": "Ohio", "slug": "101-case-school-of-applied-science-ohio-state-university"}, "locations": []}, {"site": {"city": "Philadelphia", "name": "Catalytic Co.", "rating": 3, "state": "PA", "state_ap": "Pa.", "slug": "102-catalytic-co"}, "locations": []}, {"site": {"city": "Mayag\u00fcez", "name": "Center for Energy and Environmental Research", "rating": 2, "state": "PR", "state_ap": "P.R.", "slug": "103-center-for-energy-and-environmental-research"}, "locations": []}, {"site": {"city": "Hot Creek Valley", "name": "Central Nevada Test Site", "rating": 2, "state": "NV", "state_ap": "Nev.", "slug": "104-central-nevada-test-site"}, "locations": [{"latitude": 38.634233799999997, "longitude": -116.2161811, "postal_code": "?", "name": "\"UC-1\" Site Ground Zero", "street_address": "Approximately 70 miles northeast of Tonopah, Nev."}]}, {"site": {"city": "Chambersburg", "name": "Chambersburg Engineering Co.", "rating": 2, "state": "PA", "state_ap": "Pa.", "slug": "105-chambersburg-engineering-co"}, "locations": [{"latitude": 39.925250699999999, "longitude": -77.662378000000004, "postal_code": "17201", "name": "", "street_address": "150 Derbyshire St."}]}, {"site": {"city": "Indian Orchard", "name": "Chapman Valve", "rating": 1, "state": "MA", "state_ap": "Mass.", "slug": "106-chapman-valve"}, "locations": [{"latitude": 42.154201100000002, "longitude": -72.499777600000002, "postal_code": "01151", "name": "", "street_address": "203 Hampshire Street"}]}, {"site": {"city": "Linden", "name": "Chemical Construction Co., Linden Pilot Plant", "rating": 3, "state": "NJ", "state_ap": "N.J.", "slug": "107-chemical-construction-co-linden-pilot-plant"}, "locations": []}, {"site": {"city": "Socorro County", "name": "Chupadera Mesa, New Mexico, FUSRAP Site", "rating": 1, "state": "NM", "state_ap": "N.M.", "slug": "110-chupadera-mesa-new-mexico-fusrap-site"}, "locations": [{"latitude": 34.214928, "longitude": -105.87932050000001, "postal_code": "?", "name": "Chupadera Mesa Area", "street_address": "Approximately 28 miles northeast of the Trinity nuclear test site on the White Sands Missile Range, Northeast of Bingham, New Mexico"}]}, {"site": {"city": "Cincinnati", "name": "Cincinnati Milling Machine Co.", "rating": 3, "state": "OH", "state_ap": "Ohio", "slug": "111-cincinnati-milling-machine-co"}, "locations": [{"latitude": 39.159356299999999, "longitude": -84.428018699999996, "postal_code": "45209", "name": "Former Cincinnati Milling Machine Co.", "street_address": "4701 Marburg Avenue"}]}, {"site": {"city": "Clarksville", "name": "Clarksville Foundry and Machine Co.", "rating": 3, "state": "TN", "state_ap": "Tenn.", "slug": "112-clarksville-foundry-and-machine-co"}, "locations": []}, {"site": {"city": "Cleveland", "name": "Clevite Corp.", "rating": 2, "state": "OH", "state_ap": "Ohio", "slug": "113-clevite-corp"}, "locations": [{"latitude": 41.542425000000001, "longitude": -81.616422999999998, "postal_code": "44108", "name": "", "street_address": "540 E. 105th Street"}]}, {"site": {"city": "Painsville", "name": "Clifton Products Company", "rating": 3, "state": "OH", "state_ap": "Ohio", "slug": "345-clifton-products-company"}, "locations": []}, {"site": {"city": "Grand Junction", "name": "Climax Uranium Co. (Grand Junction Mill)", "rating": 2, "state": "CO", "state_ap": "Colo.", "slug": "114-climax-uranium-co-grand-junction-mill"}, "locations": [{"latitude": 39.055225299999996, "longitude": -108.55122110000001, "postal_code": "81501", "name": "", "street_address": "Approximately 100-acre plot of land, owned by the city of Grand Junction"}]}, {"site": {"city": "Grand Junction", "name": "Colonial Uranium Co.", "rating": 2, "state": "CO", "state_ap": "Colo.", "slug": "115-colonial-uranium-co"}, "locations": []}, {"site": {"city": "Colonie (Albany)", "name": "Colonie Site (National Lead)", "rating": 0, "state": "NY", "state_ap": "N.Y.", "slug": "116-colonie-site-national-lead"}, "locations": [{"latitude": 42.689808999999997, "longitude": -73.803072999999998, "postal_code": "12205", "name": "", "street_address": "1130 Central Avenue, a site comprising \"11.2 acres plus 56 vicinity properties\""}]}, {"site": {"city": "Watervliet", "name": "Colorado Fuel and Iron", "rating": 3, "state": "NY", "state_ap": "N.Y.", "slug": "117-colorado-fuel-and-iron"}, "locations": []}, {"site": {"city": "Golden", "name": "Colorado School of Mines", "rating": 2, "state": "CO", "state_ap": "Colo.", "slug": "118-colorado-school-of-mines"}, "locations": [{"latitude": 39.752703400000001, "longitude": -105.2291912, "postal_code": "80401", "name": "", "street_address": "South bank of Clear Creek"}]}, {"site": {"city": "New York", "name": "Columbia University", "rating": 3, "state": "NY", "state_ap": "N.Y.", "slug": "119-columbia-university"}, "locations": [{"latitude": 40.810081500000003, "longitude": -73.961462499999996, "postal_code": "10027", "name": "", "street_address": "Several Columbia buildings "}]}, {"site": {"city": "Windsor", "name": "Combustion Engineering", "rating": 0, "state": "CT", "state_ap": "Conn.", "slug": "120-combustion-engineering"}, "locations": [{"latitude": 41.886879399999998, "longitude": -72.717239699999993, "postal_code": "06095", "name": "", "street_address": "200 Day Hill Road"}]}, {"site": {"city": "Cleveland", "name": "Cooper Metallurgical Associates, Inc.", "rating": 2, "state": "OH", "state_ap": "Ohio", "slug": "121-cooper-metallurgical-associates-inc"}, "locations": [{"latitude": 41.559117899999997, "longitude": -81.588515000000001, "postal_code": "44110", "name": "", "street_address": "13600 Deise Avenue"}]}, {"site": {"city": "Golden", "name": "Coors Porcelain", "rating": 2, "state": "CO", "state_ap": "Colo.", "slug": "122-coors-porcelain"}, "locations": [{"latitude": 39.760798899999998, "longitude": -105.2235364, "postal_code": "80401", "name": "Former Building No. 16, now demolished", "street_address": "7th Street and Ford Street"}]}, {"site": {"city": "Warren", "name": "Copperweld Steel", "rating": 3, "state": "OH", "state_ap": "Ohio", "slug": "123-copperweld-steel"}, "locations": [{"latitude": 41.273897499999997, "longitude": -80.850601400000002, "postal_code": "44483", "name": "", "street_address": "4000 Mahoning Avenue, NW"}]}, {"site": {"city": "New York", "name": "Cornell University Medical College", "rating": 3, "state": "NY", "state_ap": "N.Y.", "slug": "124-cornell-university-medical-college"}, "locations": []}, {"site": {"city": "Chicago", "name": "Crane Co.", "rating": 3, "state": "IL", "state_ap": "Ill.", "slug": "125-crane-co"}, "locations": [{"latitude": null, "longitude": null, "postal_code": "60632", "name": "", "street_address": "3501 W. Pershing Avenue"}, {"latitude": null, "longitude": null, "postal_code": "60605", "name": "", "street_address": "836 S. Michigan Avenue"}]}, {"site": {"city": "Crooks Gap", "name": "Crooks Gap AEC Ore Buying Station", "rating": 2, "state": "WY", "state_ap": "Wyo.", "slug": "126-crooks-gap-aec-ore-buying-station"}, "locations": []}, {"site": {"city": "Syracuse", "name": "Crucible Steel Co.", "rating": 3, "state": "NY", "state_ap": "N.Y.", "slug": "127-crucible-steel-co"}, "locations": []}, {"site": {"city": "Karthaus, Clearfield County", "name": "Curtiss-Wright Corp.", "rating": 2, "state": "PA", "state_ap": "Pa.", "slug": "128-curtiss-wright-corp"}, "locations": [{"latitude": 41.221563000000003, "longitude": -78.235699999999994, "postal_code": "16836", "name": "", "street_address": "115 Reactor Road"}]}, {"site": {"city": "Buffalo", "name": "Curtiss-Wright Corp., Metals Processing Division", "rating": 2, "state": "NY", "state_ap": "N.Y.", "slug": "129-curtiss-wright-corp-metals-processing-division"}, "locations": []}, {"site": {"city": "Marion", "name": "Dayton Project Unit 6", "rating": 3, "state": "OH", "state_ap": "Ohio", "slug": "130-dayton-project-unit-6"}, "locations": [{"latitude": 40.630764800000001, "longitude": -83.090248900000006, "postal_code": "", "name": "", "street_address": "Likens Road, east of U.S. Route 23"}]}, {"site": {"city": "Dayton", "name": "Dayton Project Units 3 and 4", "rating": 3, "state": "OH", "state_ap": "Ohio", "slug": "131-dayton-project-units-3-and-4"}, "locations": [{"latitude": 39.757058000000001, "longitude": -84.221714000000006, "postal_code": "45402", "name": "Unit 3", "street_address": "1601 West 1st Street"}, {"latitude": 39.724916999999998, "longitude": -84.1798, "postal_code": "45419", "name": "Unit 4 \u2014\u00a0Former Runnymede Playhouse", "street_address": "West of Runnymede Road, at the intersection of Dixon Avenue [Oakwood, OH]"}, {"latitude": 39.761245700000003, "longitude": -84.182980000000001, "postal_code": "45402", "name": "Dayton Project Warehouse", "street_address": "601 E. Third Street"}]}, {"site": {"city": "Denver", "name": "Denver Equipment Co.", "rating": 2, "state": "CO", "state_ap": "Colo.", "slug": "133-denver-equipment-co"}, "locations": [{"latitude": 39.752341299999998, "longitude": -104.99698410000001, "postal_code": "80202", "name": "Former Denver Testing Laboratory", "street_address": "1755 Blake Street"}]}, {"site": {"city": "Detroit", "name": "Detrex Corp", "rating": 3, "state": "MI", "state_ap": "Mich.", "slug": "134-detrex-corp"}, "locations": []}, {"site": {"city": "Stamford", "name": "Dorr Corp.", "rating": 2, "state": "CT", "state_ap": "Conn.", "slug": "135-dorr-corp"}, "locations": [{"latitude": 41.044946799999998, "longitude": -73.532897700000007, "postal_code": "06902", "name": "", "street_address": "737 Canal Street"}]}, {"site": {"city": "Midland", "name": "Dow Chemical Co", "rating": 2, "state": "MI", "state_ap": "Mich.", "slug": "136-dow-chemical-co"}, "locations": []}, {"site": {"city": "Walnut Creek", "name": "Dow Chemical Co.", "rating": 3, "state": "CA", "state_ap": "Calif.", "slug": "137-dow-chemical-co"}, "locations": [{"latitude": 37.931327699999997, "longitude": -122.0214129, "postal_code": "94598", "name": "", "street_address": "2800 Mitchell Drive"}]}, {"site": {"city": "Madison", "name": "Dow Chemical Co., Madison Site", "rating": 1, "state": "IL", "state_ap": "Ill.", "slug": "138-dow-chemical-co-madison-site"}, "locations": [{"latitude": 38.687030700000001, "longitude": -90.167361600000007, "postal_code": "62060", "name": "", "street_address": "1001 College Street"}]}, {"site": {"city": "Detroit", "name": "Dow-Detroit Edison Project", "rating": 3, "state": "MI", "state_ap": "Mich.", "slug": "139-dow-detroit-edison-project"}, "locations": []}, {"site": {"city": "Deepwater", "name": "DuPont Deepwater Works", "rating": 0, "state": "NJ", "state_ap": "N.J.", "slug": "141-dupont-deepwater-works"}, "locations": [{"latitude": 39.691073000000003, "longitude": -75.501523000000006, "postal_code": "08023", "name": "", "street_address": "On the Delaware River, just north of the Delaware Memorial Bridge"}]}, {"site": {"city": "Cleveland", "name": "DuPont-Grasselli Research Laboratory", "rating": 3, "state": "OH", "state_ap": "Ohio", "slug": "142-dupont-grasselli-research-laboratory"}, "locations": [{"latitude": 41.480316000000002, "longitude": -81.669838999999996, "postal_code": "44115", "name": "", "street_address": "3092 Broadway Avenue"}]}, {"site": {"city": "Cincinnati", "name": "Dubois Chemical Co.", "rating": 3, "state": "OH", "state_ap": "Ohio", "slug": "140-dubois-chemical-co"}, "locations": [{"latitude": 39.099555000000002, "longitude": -84.536880999999994, "postal_code": "45203", "name": "", "street_address": "1120 West Front Street (now West Mehring Way)"}]}, {"site": {"city": "Durango", "name": "Durango Mill Site", "rating": 2, "state": "CO", "state_ap": "Colo.", "slug": "143-durango-mill-site"}, "locations": [{"latitude": 37.266026500000002, "longitude": -107.8851023, "postal_code": "81301", "name": "Durango Processing Site, Mill Tailings Area", "street_address": "Approximately 0.25 miles southwest of Durango's central business district"}]}, {"site": {"city": "Dayton", "name": "Duriron Co.", "rating": 3, "state": "OH", "state_ap": "Ohio", "slug": "144-duriron-co"}, "locations": []}, {"site": {"city": "Boston", "name": "E.B. Badger", "rating": 3, "state": "MA", "state_ap": "Mass.", "slug": "145-eb-badger"}, "locations": [{"latitude": null, "longitude": null, "postal_code": "?", "name": "", "street_address": "75 Pitts Street"}]}, {"site": {"city": "Chicago", "name": "ERA Tool and Engineering Co.", "rating": 3, "state": "IL", "state_ap": "Ill.", "slug": "156-era-tool-and-engineering-co"}, "locations": [{"latitude": 41.945939500000001, "longitude": -87.741822499999998, "postal_code": "60641", "name": "", "street_address": "4555 West Addison Street"}]}, {"site": {"city": "Rochester", "name": "Eastman Kodak Laboratory", "rating": 3, "state": "NY", "state_ap": "N.Y.", "slug": "146-eastman-kodak-laboratory"}, "locations": [{"latitude": 43.198471900000001, "longitude": -77.628762399999999, "postal_code": "14615", "name": "", "street_address": "1669 Lake Avenue"}]}, {"site": {"city": "Edgemont", "name": "Edgemont Mill Site", "rating": 2, "state": "SD", "state_ap": "S.D.", "slug": "148-edgemont-mill-site"}, "locations": [{"latitude": 43.298694300000001, "longitude": -103.81365270000001, "postal_code": "57735", "name": "Former Mill Site", "street_address": "East of central Edgemont"}, {"latitude": 43.272764600000002, "longitude": -103.7936436, "postal_code": "57735", "name": "Edgemont Disposal Site", "street_address": "Approximately 2 miles south of Edgemont, and slightly east of County Road 6N"}]}, {"site": {"city": "Boston", "name": "Edgerton Germeshausen & Grier, Inc.", "rating": 2, "state": "MA", "state_ap": "Mass.", "slug": "149-edgerton-germeshausen-grier-inc"}, "locations": [{"latitude": null, "longitude": null, "postal_code": "02215", "name": "", "street_address": "160 Brookline Avenue"}]}, {"site": {"city": "Palatine", "name": "Eimco Corp.", "rating": 3, "state": "IL", "state_ap": "Ill.", "slug": "150-eimco-corp"}, "locations": [{"latitude": 42.104906700000001, "longitude": -88.032304999999994, "postal_code": "60067", "name": "", "street_address": "301 S. Hicks Road"}]}, {"site": {"city": "Pasadena", "name": "Electro Circuits, Inc.", "rating": 3, "state": "CA", "state_ap": "Calif.", "slug": "151-electro-circuits-inc"}, "locations": [{"latitude": null, "longitude": null, "postal_code": "91101", "name": "", "street_address": "401 East Green Street"}]}, {"site": {"city": "Niagara Falls", "name": "Electromet Corporation", "rating": 2, "state": "NY", "state_ap": "N.Y.", "slug": "152-electromet-corporation"}, "locations": [{"latitude": 43.086440199999998, "longitude": -79.009217800000002, "postal_code": "14303", "name": "", "street_address": "4625 Royal Avenue"}]}, {"site": {"city": "Elk River", "name": "Elk River Reactor", "rating": 3, "state": "MN", "state_ap": "Minn.", "slug": "153-elk-river-reactor"}, "locations": [{"latitude": 45.296778400000001, "longitude": -93.557789200000002, "postal_code": "55330", "name": "", "street_address": ""}]}, {"site": {"city": "Plainville", "name": "Engelhard Industries", "rating": 2, "state": "MA", "state_ap": "Mass.", "slug": "154-engelhard-industries"}, "locations": [{"latitude": 42.015671599999997, "longitude": -71.306879199999997, "postal_code": "02762", "name": "", "street_address": "30 Taunton Street, Route 152"}]}, {"site": {"city": "Brooklyn", "name": "Enterprise Metal Products", "rating": 3, "state": "NY", "state_ap": "N.Y.", "slug": "155-enterprise-metal-products"}, "locations": []}, {"site": {"city": "Toledo", "name": "Etna Machine Co.", "rating": 3, "state": "OH", "state_ap": "Ohio", "slug": "157-etna-machine-co"}, "locations": [{"latitude": 41.684947200000003, "longitude": -83.559537800000001, "postal_code": "43610", "name": "", "street_address": "3400 Maplewood Avenue"}]}, {"site": {"city": "Grand Rapids", "name": "Extruded Metals Co.", "rating": 3, "state": "MI", "state_ap": "Mich.", "slug": "158-extruded-metals-co"}, "locations": []}, {"site": {"city": "Newark", "name": "Fairmont Chemical Co.", "rating": 3, "state": "NJ", "state_ap": "N.J.", "slug": "159-fairmont-chemical-co"}, "locations": []}, {"site": {"city": "Falls City", "name": "Falls City Mill Site", "rating": 2, "state": "TX", "state_ap": "Texas", "slug": "160-falls-city-mill-site"}, "locations": [{"latitude": 28.905392599999999, "longitude": -98.131941100000006, "postal_code": "78113", "name": "Former Mill Site", "street_address": "Approximately 8 miles southwest of Falls City"}]}, {"site": {"city": "Falls City", "name": "Falls City Uranium Ore Stockpile", "rating": 2, "state": "TX", "state_ap": "Texas", "slug": "161-falls-city-uranium-ore-stockpile"}, "locations": []}, {"site": {"city": "Chicago", "name": "Fansteel Metallurgical Corp.", "rating": 3, "state": "IL", "state_ap": "Ill.", "slug": "162-fansteel-metallurgical-corp"}, "locations": []}, {"site": {"city": "New Britain/Newington  & Hartford", "name": "Fenn Machinery Co.", "rating": 3, "state": "CT", "state_ap": "Conn.", "slug": "163-fenn-machinery-co"}, "locations": [{"latitude": 41.706047300000002, "longitude": -72.746852500000003, "postal_code": "06111", "name": "", "street_address": "300 Fenn Road, Newington"}]}, {"site": {"city": "Ashland", "name": "Fenwal, Inc.", "rating": 3, "state": "MA", "state_ap": "Mass.", "slug": "164-fenwal-inc"}, "locations": []}, {"site": {"city": "New York", "name": "Ferro Metal and Chemical Co.", "rating": 3, "state": "NY", "state_ap": "N.Y.", "slug": "165-ferro-metal-and-chemical-co"}, "locations": [{"latitude": 40.705660000000002, "longitude": -74.011759999999995, "postal_code": "10004", "name": "", "street_address": "50 Broad Street"}]}, {"site": {"city": "Brooklyn", "name": "Floyd Bennett Field", "rating": 3, "state": "NY", "state_ap": "N.Y.", "slug": "166-floyd-bennett-field"}, "locations": []}, {"site": {"city": "Nitro", "name": "Food Machinery and Chemical Co.", "rating": 3, "state": "WV", "state_ap": "W.Va.", "slug": "167-food-machinery-and-chemical-co"}, "locations": []}, {"site": {"city": "Exton / Frazer / East Whiteland Township", "name": "Foote Mineral Co.", "rating": 3, "state": "PA", "state_ap": "Pa.", "slug": "168-foote-mineral-co"}, "locations": [{"latitude": 40.039999999999999, "longitude": -75.585269999999994, "postal_code": "19355-1502", "name": "", "street_address": "15 South Bacton Hill Road"}]}, {"site": {"city": "New York", "name": "Fordham University", "rating": 3, "state": "NY", "state_ap": "N.Y.", "slug": "169-fordham-university"}, "locations": []}, {"site": {"city": "Philadelphia", "name": "Frankford Arsenal", "rating": 2, "state": "PA", "state_ap": "Pa.", "slug": "170-frankford-arsenal"}, "locations": [{"latitude": 40.009283600000003, "longitude": -75.0621711, "postal_code": "19137", "name": "", "street_address": "Located near the intersection of Tacony Street and Interstate  Highway 95"}]}, {"site": {"city": "North Tonawanda", "name": "Frederick Flader, Inc.", "rating": 3, "state": "NY", "state_ap": "N.Y.", "slug": "171-frederick-flader-inc"}, "locations": [{"latitude": null, "longitude": null, "postal_code": "14120", "name": "", "street_address": "583 Division Street"}]}, {"site": {"city": "Chicago", "name": "GSA 39th Street Warehouse", "rating": 3, "state": "IL", "state_ap": "Ill.", "slug": "187-gsa-39th-street-warehouse"}, "locations": [{"latitude": 41.823892999999998, "longitude": -87.668623999999994, "postal_code": "60609", "name": "", "street_address": "1716 West Pershing Road"}]}, {"site": {"city": "Riverview", "name": "Gardinier, Inc.", "rating": 2, "state": "FL", "state_ap": "Fla.", "slug": "172-gardinier-inc"}, "locations": [{"latitude": 27.8634503, "longitude": -82.393357100000003, "postal_code": "33569 ", "name": "", "street_address": "8813 U.S. Highway 41 South"}]}, {"site": {"city": "La Jolla", "name": "General Atomics", "rating": 2, "state": "CA", "state_ap": "Calif.", "slug": "173-general-atomics"}, "locations": [{"latitude": 32.893881999999998, "longitude": -117.236318, "postal_code": "92121", "name": "General Atomics", "street_address": "3550 General Atomics Court"}]}, {"site": {"city": "San Jose", "name": "General Electric Co.", "rating": 2, "state": "CA", "state_ap": "Calif.", "slug": "174-general-electric-co"}, "locations": [{"latitude": 37.302840699999997, "longitude": -121.8656185, "postal_code": "95125", "name": "", "street_address": "175 Curtner Ave"}]}, {"site": {"city": "Shelbyville", "name": "General Electric Co.", "rating": 3, "state": "IN", "state_ap": "Ind.", "slug": "175-general-electric-co"}, "locations": []}, {"site": {"city": "Pleasanton/Sunol", "name": "General Electric Vallecitos", "rating": 2, "state": "CA", "state_ap": "Calif.", "slug": "176-general-electric-vallecitos"}, "locations": [{"latitude": 37.608846300000003, "longitude": -121.8435298, "postal_code": "94586", "name": "", "street_address": "6705 Vallecitos Road; Sunol, California"}]}, {"site": {"city": "Milwaukee", "name": "General Electric X-Ray Division Pilot Plant", "rating": 2, "state": "WI", "state_ap": "Wis.", "slug": "177-general-electric-co-x-ray-division"}, "locations": [{"latitude": 43.003757100000001, "longitude": -87.973866599999994, "postal_code": "53219", "name": "", "street_address": "4855 W. Electric Ave. "}]}, {"site": {"city": "Granite City", "name": "General Steel Industries", "rating": 1, "state": "IL", "state_ap": "Ill.", "slug": "178-general-steel-industries"}, "locations": [{"latitude": 38.692619700000002, "longitude": -90.162289999999999, "postal_code": "62040", "name": "", "street_address": "1417 State Street"}]}, {"site": {"city": "Berkeley", "name": "Gilman Hall, University of California at Berkeley", "rating": 1, "state": "CA", "state_ap": "Calif.", "slug": "62-gilman-hall-university-of-california-at-berkeley"}, "locations": [{"latitude": 37.872571000000001, "longitude": -122.256179, "postal_code": "94720", "name": "", "street_address": "South Drive, UC Berkeley Campus"}]}, {"site": {"city": "Rochester", "name": "Gleason Works", "rating": 3, "state": "NY", "state_ap": "N.Y.", "slug": "179-gleason-works"}, "locations": []}, {"site": {"city": "Globe", "name": "Globe (Cutter) AEC Ore Buying Station", "rating": 2, "state": "AZ", "state_ap": "Ariz.", "slug": "180-globe-cutter-aec-ore-buying-station"}, "locations": [{"latitude": null, "longitude": null, "postal_code": "85550", "name": "Ore-Buying Station", "street_address": "Eight miles east of Globe, Ariz."}]}, {"site": {"city": "Granite City", "name": "Granite City Army Depot", "rating": 2, "state": "IL", "state_ap": "Ill.", "slug": "181-granite-city-army-depot"}, "locations": []}, {"site": {"city": "Grants", "name": "Grants AEC Ore Buying Station", "rating": 2, "state": "NM", "state_ap": "N.M.", "slug": "182-grants-aec-ore-buying-station"}, "locations": []}, {"site": {"city": "Chicago", "name": "Great Lakes Carbon Corp.", "rating": 3, "state": "IL", "state_ap": "Ill.", "slug": "183-great-lakes-carbon-corp"}, "locations": []}, {"site": {"city": "Green River", "name": "Green River Mill Site", "rating": 2, "state": "UT", "state_ap": "Utah", "slug": "184-green-river-mill-site"}, "locations": [{"latitude": 38.978245000000001, "longitude": -110.1375529, "postal_code": "84525", "name": "Disposal Cell", "street_address": "About 0.5 miles east of the Green River and 1.5 miles southeast of the city of Green River, Utah."}]}, {"site": {"city": "Norwood / Cincinnati", "name": "Gruen Watch Co.", "rating": 3, "state": "OH", "state_ap": "Ohio", "slug": "185-gruen-watch"}, "locations": []}, {"site": {"city": "Gunnison", "name": "Gunnison Mill Site", "rating": 2, "state": "CO", "state_ap": "Colo.", "slug": "188-gunnison-mill-site"}, "locations": [{"latitude": 38.531764899999999, "longitude": -106.9424463, "postal_code": "81230", "name": "Former mill site", "street_address": "61.5-acre tract of land southwest of the City of Gunnison"}]}, {"site": {"city": "Lockport", "name": "Guterl Specialty Steel", "rating": 0, "state": "NY", "state_ap": "N.Y.", "slug": "189-guterl-specialty-steel"}, "locations": [{"latitude": 43.158960100000002, "longitude": -78.711048899999994, "postal_code": "14094", "name": "", "street_address": "695 Ohio Street"}]}, {"site": {"city": "Hallam", "name": "Hallam Nuclear Power Facility", "rating": 3, "state": "NE", "state_ap": "Neb.", "slug": "190-hallam-nuclear-power-facility"}, "locations": [{"latitude": 40.558275500000001, "longitude": -96.784752800000007, "postal_code": "68368", "name": "Former Hallam Nuclear Power Facility", "street_address": "Approximately 19 miles south of Lincoln, Neb."}]}, {"site": {"city": "Hamilton", "name": "Hamilton OH Site", "rating": 1, "state": "OH", "state_ap": "Ohio", "slug": "191-hamilton-oh-site"}, "locations": [{"latitude": 39.382248500000003, "longitude": -84.547110500000002, "postal_code": "45011", "name": "", "street_address": "1550 Grand Boulevard"}]}, {"site": {"city": "Richland", "name": "Hanford Engineer Works", "rating": 2, "state": "WA", "state_ap": "Wash.", "slug": "192-hanford-engineer-works"}, "locations": [{"latitude": 46.668758400000002, "longitude": -119.5113211, "postal_code": "98944", "name": "\"100 Area\"", "street_address": "Approximately 26 square miles of the northern portion of the Hanford site, bisected by the Columbia River"}]}, {"site": {"city": "Cleveland", "name": "Harshaw Chemical Co.", "rating": 0, "state": "OH", "state_ap": "Ohio", "slug": "193-harshaw-chemical-co"}, "locations": [{"latitude": 41.448863000000003, "longitude": -81.685522000000006, "postal_code": "44109-3048", "name": "", "street_address": "1000 Harvard Avenue"}]}, {"site": {"city": "Cambridge", "name": "Harvard University Electron Accelerator", "rating": 3, "state": "MA", "state_ap": "Mass.", "slug": "194-harvard-university-electron-accelerator"}, "locations": [{"latitude": 42.379858300000002, "longitude": -71.114550199999996, "postal_code": "02138", "name": "Former Cambridge Electron Accelerator Building", "street_address": "38 Oxford Street"}]}, {"site": {"city": "Worcester", "name": "Heald Machine Co.", "rating": 3, "state": "MA", "state_ap": "Mass.", "slug": "195-heald-machine-co"}, "locations": []}, {"site": {"city": "Chicago", "name": "Heavy Minerals, Inc.", "rating": 3, "state": "IL", "state_ap": "Ill.", "slug": "196-heavy-minerals-inc"}, "locations": []}, {"site": {"city": "Pittsburgh", "name": "Heppenstall Co.", "rating": 3, "state": "PA", "state_ap": "Pa.", "slug": "197-heppenstall-co"}, "locations": [{"latitude": 40.475836399999999, "longitude": -79.961297799999997, "postal_code": "15201", "name": "Former Heppenstall Co. Site", "street_address": "4620 Hatfield St."}]}, {"site": {"city": "Princeton", "name": "Heyden Chemical Corp.", "rating": 2, "state": "NJ", "state_ap": "N.J.", "slug": "199-heyden-chemical-corp"}, "locations": []}, {"site": {"city": "Niagara Falls", "name": "Hooker Chemical Co.", "rating": 3, "state": "NY", "state_ap": "N.Y.", "slug": "200-hooker-chemical-co"}, "locations": [{"latitude": 43.0807723, "longitude": -79.004569599999996, "postal_code": "14304", "name": "", "street_address": "4700 Buffalo Ave."}]}, {"site": {"city": "Cleveland", "name": "Horizons, Inc.", "rating": 2, "state": "OH", "state_ap": "Ohio", "slug": "202-horizons-inc"}, "locations": [{"latitude": 41.479640799999999, "longitude": -81.632280199999997, "postal_code": "44104", "name": "", "street_address": "2909 East 79th Street"}]}, {"site": {"city": "Jacksonville", "name": "Humphreys Gold Co", "rating": 2, "state": "FL", "state_ap": "Fla.", "slug": "203-humphreys-gold-co"}, "locations": []}, {"site": {"city": "Riverside", "name": "Hunter Douglas Aluminum Corp.", "rating": 2, "state": "CA", "state_ap": "Calif.", "slug": "205-hunter-douglas-aluminum-corp"}, "locations": [{"latitude": 33.985768999999998, "longitude": -117.357148, "postal_code": "92507", "name": "", "street_address": "3016 Kansas Avenue"}]}, {"site": {"city": "Chicago", "name": "Hydroblast Corp.", "rating": 3, "state": "IL", "state_ap": "Ill.", "slug": "206-hydroblast-corp"}, "locations": [{"latitude": null, "longitude": null, "postal_code": "", "name": "", "street_address": "2550 Northwestern Avenue, possibly 2550 N. Western Avenue"}]}, {"site": {"city": "Bloomington", "name": "Indiana University", "rating": 3, "state": "IN", "state_ap": "Ind.", "slug": "495-university-of-indiana"}, "locations": [{"latitude": 39.164752499999999, "longitude": -86.525066499999994, "postal_code": "47408", "name": "", "street_address": "Swain Hall/Physics Department"}]}, {"site": {"city": "Bartow", "name": "International Minerals and Chemical Corp., Bonnie Mill Plant", "rating": 2, "state": "FL", "state_ap": "Fla.", "slug": "207-international-minerals-and-chemical-corp-bonnie-mill-plant"}, "locations": [{"latitude": 27.864733999999999, "longitude": -81.931867999999994, "postal_code": "33830-8461", "name": "", "street_address": "2501 Bonnie Mine Road"}]}, {"site": {"city": "Mulberry", "name": "International Minerals and Chemical Corp., Pilot Plant", "rating": 2, "state": "FL", "state_ap": "Fla.", "slug": "208-international-minerals-and-chemical-corp-pilot-plant"}, "locations": [{"latitude": 27.896259000000001, "longitude": -81.992174000000006, "postal_code": "33860", "name": "", "street_address": "2151 Highway 60"}]}, {"site": {"city": "Bayonne", "name": "International Nickel Co.", "rating": 3, "state": "NJ", "state_ap": "N.J.", "slug": "209-international-nickel-co"}, "locations": []}, {"site": {"city": "Moorestown", "name": "International Pulverizing Co.", "rating": 3, "state": "NJ", "state_ap": "N.J.", "slug": "211-international-pulverizing-co"}, "locations": [{"latitude": 39.966135000000001, "longitude": -74.975122999999996, "postal_code": "08057", "name": "", "street_address": "332 New Albany Road"}]}, {"site": {"city": "Mount Kisco", "name": "International Rare Metals Refinery, Inc.", "rating": 2, "state": "NY", "state_ap": "N.Y.", "slug": "212-international-rare-metals-refinery-inc"}, "locations": [{"latitude": 41.211547799999998, "longitude": -73.727766399999993, "postal_code": "10549", "name": "", "street_address": "103 Kisco Ave (listed in some government documents as 69 Kisco Avenue)"}]}, {"site": {"city": "Chicago", "name": "International Register", "rating": 3, "state": "IL", "state_ap": "Ill.", "slug": "215-international-register"}, "locations": [{"latitude": 41.883203199999997, "longitude": -87.691982300000006, "postal_code": "60612", "name": "", "street_address": "2620 West Washington Boulevard"}]}, {"site": {"city": "Middletown", "name": "Iowa Army Ammunition Plant", "rating": 0, "state": "IA", "state_ap": "Iowa", "slug": "216-iowa-army-ammunition-plant"}, "locations": [{"latitude": 40.813525400000003, "longitude": -91.224771700000005, "postal_code": "52638", "name": "", "street_address": "17571 Highway 79, an approximately 19,000-acre site"}]}, {"site": {"city": "Ames", "name": "Iowa State University Ames Laboratory", "rating": 2, "state": "IA", "state_ap": "Iowa", "slug": "217-iowa-state-university-ames-laboratory"}, "locations": [{"latitude": 42.029514200000001, "longitude": -93.648689899999994, "postal_code": "50011", "name": "Gilman Hall", "street_address": "Osborn Dr."}, {"latitude": 42.027244500000002, "longitude": -93.641886299999996, "postal_code": "50011", "name": "Former Chemistry Annex I Site", "street_address": "Wallace Rd."}, {"latitude": 42.027993600000002, "longitude": -93.640577300000004, "postal_code": "Wallace Rd", "name": "Former Chemistry Annex II Site", "street_address": "Wallace Rd."}]}, {"site": {"city": "Ithaca", "name": "Ithaca Gun Company", "rating": 3, "state": "NY", "state_ap": "N.Y.", "slug": "218-ithaca-gun-company"}, "locations": [{"latitude": 42.452080799999997, "longitude": -76.492845399999993, "postal_code": "14850", "name": "Former Ithaca Gun Company Site", "street_address": "123 Lake Street"}]}, {"site": {"city": "Phillipsburg", "name": "J.T. Baker Chemical Co.", "rating": 2, "state": "NJ", "state_ap": "N.J.", "slug": "219-jt-baker-chemical-co"}, "locations": [{"latitude": 40.702254000000003, "longitude": -75.197626999999997, "postal_code": "18045", "name": "", "street_address": "600 North Broad Street"}]}, {"site": {"city": "Jersey City", "name": "Jersey City FUSRAP Site", "rating": 1, "state": "NJ", "state_ap": "N.J.", "slug": "220-jersey-city-nj-site"}, "locations": [{"latitude": 40.708736299999998, "longitude": -74.101281299999997, "postal_code": "07305", "name": "", "street_address": "Intersection of New Jersey Route 440 and Kellogg Street"}]}, {"site": {"city": "Washington", "name": "Jessop Steel Co.", "rating": 3, "state": "PA", "state_ap": "Pa.", "slug": "221-jessop-steel-co"}, "locations": [{"latitude": 40.177675000000001, "longitude": -80.268682999999996, "postal_code": "15301-2335", "name": "", "street_address": "500 Green Street"}]}, {"site": {"city": "Cincinnati", "name": "John Van Range Co Div of Edwards Manufacturing", "rating": 3, "state": "OH", "state_ap": "Ohio", "slug": "222-john-van-range-co-div-of-edwards-manufacturing"}, "locations": []}, {"site": {"city": "Baltimore", "name": "Johns Hopkins University", "rating": 3, "state": "MD", "state_ap": "Md.", "slug": "223-johns-hopkins-university"}, "locations": [{"latitude": 39.328552999999999, "longitude": -76.619783999999996, "postal_code": "21218", "name": "Krieger Hall (formerly Rowland Hall)", "street_address": "Johns Hopkins Homewood Campus"}]}, {"site": {"city": "Fort Wayne", "name": "Joslyn Manufacturing Supply Co.", "rating": 0, "state": "IN", "state_ap": "Ind.", "slug": "225-joslyn-manufacturing-supply-co"}, "locations": [{"latitude": 41.071311999999999, "longitude": -85.170231999999999, "postal_code": "46802-4611", "name": "Valbruna Slater Steel", "street_address": "2400 Taylor Street, an approximately 63-acre site"}]}, {"site": {"city": "Dolton", "name": "Kaiser Aluminum Corp", "rating": 3, "state": "IL", "state_ap": "Ill.", "slug": "226-kaiser-aluminum-corp"}, "locations": [{"latitude": 41.638553999999999, "longitude": -87.595875000000007, "postal_code": "60419", "name": "", "street_address": "14200 Cottage Grove Ave"}]}, {"site": {"city": "Will County", "name": "Kankakee Ordnance Plant", "rating": 3, "state": "IL", "state_ap": "Ill.", "slug": "228-kankakee-ordnance-plant"}, "locations": [{"latitude": null, "longitude": null, "postal_code": "", "name": "", "street_address": "Within the Joliet Arsenal"}]}, {"site": {"city": "Guthrie (Crescent)", "name": "Kerr-McGee", "rating": 2, "state": "OK", "state_ap": "Okla.", "slug": "230-kerr-mcgee"}, "locations": [{"latitude": 35.879061999999998, "longitude": -97.584750999999997, "postal_code": "73044", "name": "", "street_address": "Highway 74, 0.5 miles north of Highway 33"}]}, {"site": {"city": "Niskayuna", "name": "Knolls Atomic Power Laboratory", "rating": 2, "state": "NY", "state_ap": "N.Y.", "slug": "231-knolls-atomic-power-laboratory"}, "locations": [{"latitude": 42.824269899999997, "longitude": -73.868316800000002, "postal_code": "12309", "name": "Knolls Atomic Power Laboratory, Separations Process Research Unit", "street_address": "Approximately 30 acres at 2401 River Road"}]}, {"site": {"city": "Knoxville", "name": "Knoxville Iron Co.", "rating": 2, "state": "TN", "state_ap": "Tenn.", "slug": "232-knoxville-iron-co"}, "locations": [{"latitude": 35.979165000000002, "longitude": -83.956012999999999, "postal_code": "37921", "name": "Knoxville Iron Co.", "street_address": "1919 Tennessee Avenue"}]}, {"site": {"city": "Verona", "name": "Koppers Co., Inc.", "rating": 2, "state": "PA", "state_ap": "Pa.", "slug": "234-koppers-co-inc"}, "locations": [{"latitude": 40.512939000000003, "longitude": -79.832851000000005, "postal_code": "15147-2146", "name": "Koppers Co., Inc.", "street_address": "15 Plum St."}]}, {"site": {"city": "Los Alamos County", "name": "LASL Land Parcels A, B, C, E, K, LN, PL", "rating": 3, "state": "NM", "state_ap": "N.M.", "slug": "238-lasl-land-parcels-a-b-c-e-k-ln-pl"}, "locations": []}, {"site": {"city": "Los Alamos County", "name": "LASL Tracks Eastern Area No. 3", "rating": 3, "state": "NM", "state_ap": "N.M.", "slug": "239-lasl-tracks-eastern-area-no-3"}, "locations": []}, {"site": {"city": "Los Alamos County", "name": "LASL Tract OO", "rating": 3, "state": "NM", "state_ap": "N.M.", "slug": "240-lasl-tract-oo"}, "locations": []}, {"site": {"city": "Hudson", "name": "La Pointe Machine and Tool Co.", "rating": 3, "state": "MA", "state_ap": "Mass.", "slug": "235-la-pointe-machine-and-tool-co"}, "locations": []}, {"site": {"city": "Lakeview", "name": "Lakeview Mill", "rating": 2, "state": "OR", "state_ap": "Ore.", "slug": "236-lakeview-mill"}, "locations": [{"latitude": 42.210278000000002, "longitude": -120.37, "postal_code": "", "name": "Processing Sites", "street_address": "1.5 miles north-northwest of Lakeview in Lake County, Oregon, 16 miles north of the California\u2013Oregon border"}, {"latitude": 42.285829999999997, "longitude": -120.4325, "postal_code": "", "name": "Disposal Site", "street_address": "7 miles northwest of the town of Lakeview on land historically known as the Collins Ranch"}]}, {"site": {"city": "Waynesboro", "name": "Landis Machine Tool Co.", "rating": 3, "state": "PA", "state_ap": "Pa.", "slug": "237-landis-machine-tool-co"}, "locations": [{"latitude": null, "longitude": null, "postal_code": "17268-2610", "name": "Landis Machine Tool Co.", "street_address": ""}]}, {"site": {"city": "Hazelwood", "name": "Latty Avenue Properties", "rating": 0, "state": "MO", "state_ap": "Mo.", "slug": "242-latty-avenue-site"}, "locations": [{"latitude": 38.767777299999999, "longitude": -90.349650100000005, "postal_code": "63134", "name": "", "street_address": "9170 and 9200 Latty Avenue, an approximately 11-acre tract"}]}, {"site": {"city": "New York", "name": "Ledoux and Co.", "rating": 3, "state": "NY", "state_ap": "N.Y.", "slug": "243-ledoux-and-co"}, "locations": [{"latitude": null, "longitude": null, "postal_code": "10013", "name": "", "street_address": "155 Avenue of the Americas"}]}, {"site": {"city": "Stanford", "name": "Leland Stanford University", "rating": 2, "state": "CA", "state_ap": "Calif.", "slug": "244-leland-stanford-university"}, "locations": [{"latitude": 37.428818, "longitude": -122.174053, "postal_code": "94305", "name": "", "street_address": "348 Via Pueblo Mall, Stanford University"}]}, {"site": {"city": "Buffalo", "name": "Linde Air Products", "rating": 3, "state": "NY", "state_ap": "N.Y.", "slug": "245-linde-air-products"}, "locations": [{"latitude": 42.943035600000002, "longitude": -78.885474700000003, "postal_code": "14207", "name": "", "street_address": "155 Chandler St."}]}, {"site": {"city": "Tonawanda", "name": "Linde Air Products, Ceramics Plant", "rating": 0, "state": "NY", "state_ap": "N.Y.", "slug": "246-linde-air-products-ceramics-plant"}, "locations": [{"latitude": 42.976265599999998, "longitude": -78.891835999999998, "postal_code": "14150", "name": "", "street_address": "175 East Park Drive, a 135-acre site"}]}, {"site": {"city": "West Chicago", "name": "Lindsay Light and Chemical Co.", "rating": 2, "state": "IL", "state_ap": "Ill.", "slug": "247-lindsay-light-and-chemical-co"}, "locations": [{"latitude": 41.872329999999998, "longitude": -88.2082202, "postal_code": " 60185", "name": "Former Rare Earths Facility", "street_address": "Approximately 43 acres of contiguous property at Weyrauch Street and W. Lester Street"}, {"latitude": 41.892859100000003, "longitude": -88.208568299999996, "postal_code": "60185", "name": "Reed-Keppler Park", "street_address": "W. National Street and Yale Street"}, {"latitude": 41.850899699999999, "longitude": -88.200066199999995, "postal_code": "60185", "name": "Kress Creek/West Branch DuPage River", "street_address": "Near S. Neltnor Blvd."}, {"latitude": 41.864592100000003, "longitude": -88.192502399999995, "postal_code": "60185", "name": "Sewage Treatment Plant", "street_address": "S. Neltnor Blvd. and Roosevelt Road"}]}, {"site": {"city": "Cincinnati", "name": "Lodge and Shipley", "rating": 3, "state": "OH", "state_ap": "Ohio", "slug": "248-lodge-and-shipley"}, "locations": []}, {"site": {"city": "Loma", "name": "Loma Mill", "rating": 2, "state": "CO", "state_ap": "Colo.", "slug": "249-loma-mill"}, "locations": []}, {"site": {"city": "New York", "name": "Long Island College of Medicine", "rating": 3, "state": "NY", "state_ap": "N.Y.", "slug": "250-long-island-college-of-medicine"}, "locations": []}, {"site": {"city": "Los Alamos", "name": "Los Alamos Underground MED Pipelines", "rating": 2, "state": "NM", "state_ap": "N.M.", "slug": "251-los-alamos-underground-med-pipelines"}, "locations": [{"latitude": null, "longitude": null, "postal_code": "", "name": "Los Alamos County Industrial Waste Lines", "street_address": "North of Los Alamos Canyon"}]}, {"site": {"city": "Sweetwater County", "name": "Lost Creek", "rating": 2, "state": "WY", "state_ap": "Wyo.", "slug": "252-lost-creek"}, "locations": []}, {"site": {"city": "Niagara Falls", "name": "Love Canal", "rating": 3, "state": "NY", "state_ap": "N.Y.", "slug": "253-love-canal"}, "locations": [{"latitude": 43.083933999999999, "longitude": -78.95093, "postal_code": "?", "name": "", "street_address": "\"Region running from Old Military Road from the 16-acre rectangular piece of land in the southeast corner of Niagara Falls into the Township of Lewiston,\" according to the Department of Energy."}]}, {"site": {"city": "Lowman", "name": "Lowman Mill Site", "rating": 2, "state": "ID", "state_ap": "Idaho", "slug": "254-lowman-mill-site"}, "locations": [{"latitude": 44.084159999999997, "longitude": -115.6075, "postal_code": "", "name": "", "street_address": "Boise County, Idaho, approximately 73 miles northeast of Boise and 0.5 mile northeast of the town of Lowman."}]}, {"site": {"city": "New York", "name": "Lucius Pitkin", "rating": 3, "state": "NY", "state_ap": "N.Y.", "slug": "255-lucius-pitkin"}, "locations": [{"latitude": null, "longitude": null, "postal_code": "10038", "name": "", "street_address": "47 Fulton Street"}]}, {"site": {"city": "Luckey", "name": "Luckey, Ohio, FUSRAP Site", "rating": 0, "state": "OH", "state_ap": "Ohio", "slug": "256-luckey-oh"}, "locations": [{"latitude": 41.458069999999999, "longitude": -83.490195999999997, "postal_code": "43443", "name": "", "street_address": "21200 Luckey Road"}]}, {"site": {"city": "Cincinnati", "name": "Magnus Brass Co.", "rating": 2, "state": "OH", "state_ap": "Ohio", "slug": "257-magnus-brass-co"}, "locations": [{"latitude": 39.109408899999998, "longitude": -84.505020000000002, "postal_code": "45202", "name": "", "street_address": "533 Reading Road"}, {"latitude": 39.102869099999999, "longitude": -84.534041099999996, "postal_code": "45203", "name": "", "street_address": "1029 West 7th Street"}]}, {"site": {"city": "Boston", "name": "Manufacturing Laboratories, Inc.", "rating": 3, "state": "MA", "state_ap": "Mass.", "slug": "259-manufacturing-laboratories-inc"}, "locations": [{"latitude": null, "longitude": null, "postal_code": "02118", "name": "", "street_address": "272 Northampton Street"}]}, {"site": {"city": "Mare Island", "name": "Mare Island Navy Yard", "rating": 3, "state": "CA", "state_ap": "Calif.", "slug": "260-mare-island-navy-yard"}, "locations": []}, {"site": {"city": "Marion", "name": "Marion Engineer Depot", "rating": 2, "state": "OH", "state_ap": "Ohio", "slug": "261-marion-engineer-depot"}, "locations": [{"latitude": 40.604243500000003, "longitude": -83.047928999999996, "postal_code": "43302", "name": "", "street_address": "South of Harding Highway (Route 309), at County Route 98"}]}, {"site": {"city": "Boulder", "name": "Marion Mill Site", "rating": 2, "state": "CO", "state_ap": "Colo.", "slug": "262-marion-mill-site"}, "locations": [{"latitude": null, "longitude": null, "postal_code": "80302", "name": "", "street_address": "1835 Sugarloaf Road"}]}, {"site": {"city": "New York", "name": "Markite Co.", "rating": 3, "state": "NY", "state_ap": "N.Y.", "slug": "263-markite-co"}, "locations": [{"latitude": 40.733695699999998, "longitude": -74.001025600000006, "postal_code": "10014", "name": "", "street_address": "155 Waverly Place"}]}, {"site": {"city": "Baltimore", "name": "Maryland Disposal Site", "rating": 3, "state": "MD", "state_ap": "Md.", "slug": "264-maryland-disposal-site"}, "locations": [{"latitude": null, "longitude": null, "postal_code": "", "name": "", "street_address": "Curtis Bay"}]}, {"site": {"city": "Marysvale", "name": "Marysvale AEC Ore Buying Station", "rating": 2, "state": "UT", "state_ap": "Utah", "slug": "265-marysvale-aec-ore-buying-station"}, "locations": []}, {"site": {"city": "Cambridge", "name": "Massachusetts Institute of Technology, Hood Building", "rating": 3, "state": "MA", "state_ap": "Mass.", "slug": "266-massachusetts-institute-of-technology-hood-building"}, "locations": [{"latitude": 42.360869299999997, "longitude": -71.095456400000003, "postal_code": "02139", "name": "Former (Demolished) Hood Building", "street_address": "155 Massachusetts Avenue"}]}, {"site": {"city": "Chicago", "name": "Max Zuckerman and Sons", "rating": 3, "state": "IL", "state_ap": "Ill.", "slug": "268-max-zuckerman-and-sons"}, "locations": [{"latitude": 41.916672499999997, "longitude": -87.654377800000006, "postal_code": "60614", "name": "", "street_address": "1925 North Kenmore Avenue"}]}, {"site": {"city": "Baltimore", "name": "Max Zuckerman and Sons", "rating": 3, "state": "MD", "state_ap": "Md.", "slug": "269-max-zuckerman-and-sons"}, "locations": [{"latitude": 39.343598, "longitude": -76.686327899999995, "postal_code": "21215", "name": "", "street_address": "5245 Fairlawn Avenue"}]}, {"site": {"city": "Maybell", "name": "Maybell Mill Site", "rating": 2, "state": "CO", "state_ap": "Colo.", "slug": "270-maybell-mill-site"}, "locations": [{"latitude": 40.543734899999997, "longitude": -107.9935576, "postal_code": "81625", "name": "Disposal Cell and Former Mill Site", "street_address": "County Road 53, North of U.S. Highway 40"}]}, {"site": {"city": "Maywood", "name": "Maywood Site", "rating": 0, "state": "NJ", "state_ap": "N.J.", "slug": "272-maywood-site"}, "locations": [{"latitude": 40.898229000000001, "longitude": -74.071579, "postal_code": "07607", "name": "", "street_address": "100 West Hunter Avenue"}]}, {"site": {"city": "Cleveland", "name": "McKinney Tool and Manufacturing Co.", "rating": 3, "state": "OH", "state_ap": "Ohio", "slug": "273-mckinney-tool-and-manufacturing-co"}, "locations": [{"latitude": 41.552328699999997, "longitude": -81.561875900000004, "postal_code": "44112", "name": "", "street_address": "1688 Arabella Road"}]}, {"site": {"city": "St. Louis", "name": "Medart Co.", "rating": 3, "state": "MO", "state_ap": "Mo.", "slug": "274-medart-co"}, "locations": [{"latitude": 38.588836399999998, "longitude": -90.215720000000005, "postal_code": "63118", "name": "", "street_address": "Dekalb and Potomac Streets"}]}, {"site": {"city": "Hatboro", "name": "Meili and Worthington", "rating": 3, "state": "PA", "state_ap": "Pa.", "slug": "275-meili-and-worthington"}, "locations": []}, {"site": {"city": "New York", "name": "Memorial Hospital", "rating": 3, "state": "NY", "state_ap": "N.Y.", "slug": "276-memorial-hospital"}, "locations": []}, {"site": {"city": "Verona", "name": "Metals Disintegrating Co., Inc.", "rating": 3, "state": "NJ", "state_ap": "N.J.", "slug": "278-metals-disintegrating-co-inc"}, "locations": [{"latitude": 40.844248, "longitude": -74.236264300000002, "postal_code": "07044", "name": "Former Metals Disintegrating Facility", "street_address": "271 Grove Avenue"}]}, {"site": {"city": "Putnam", "name": "Metals Selling Corp.", "rating": 3, "state": "CT", "state_ap": "Conn.", "slug": "279-metals-selling-corp"}, "locations": []}, {"site": {"city": "Attleboro", "name": "Metals and Controls Corp.", "rating": 2, "state": "MA", "state_ap": "Mass.", "slug": "277-metals-and-controls-corp"}, "locations": [{"latitude": 41.948649699999997, "longitude": -71.2689381, "postal_code": "02703", "name": "Former M&C Nuclear building", "street_address": "East of Forest St., between Haggerty Highway and Perry Ave."}]}, {"site": {"city": "?", "name": "Metcut Research", "rating": 3, "state": "??", "state_ap": "[Unk.]", "slug": "281-metcut-research"}, "locations": []}, {"site": {"city": "Mexican Hat", "name": "Mexican Hat AEC Ore Buying Station", "rating": 2, "state": "UT", "state_ap": "Utah", "slug": "282-mexican-hat-aec-ore-buying-station"}, "locations": []}, {"site": {"city": "Mexican Hat", "name": "Mexican Hat Mill Site", "rating": 2, "state": "UT", "state_ap": "Utah", "slug": "283-mexican-hat-mill-site"}, "locations": [{"latitude": 37.132137, "longitude": -109.882797, "postal_code": "84531", "name": "Former Mill Site", "street_address": "East of U.S. Highway 163, approximately 1.5 miles southwest of Mexican Hat"}, {"latitude": 37.133744999999998, "longitude": -109.8742568, "postal_code": "84531", "name": "Disposal Site", "street_address": "Directly east of the former mill site"}]}, {"site": {"city": "St. Louis", "name": "Michigan (Velsicol) Chemical Corp.", "rating": 2, "state": "MI", "state_ap": "Mich.", "slug": "284-michigan-velsicol-chemical-corp"}, "locations": [{"latitude": 43.411042799999997, "longitude": -84.617318999999995, "postal_code": "", "name": "Former Plant Site", "street_address": "On the Pine River, near the intersection of North St. and Watson St."}]}, {"site": {"city": "Middlesex", "name": "Middlesex North Site", "rating": 1, "state": "NJ", "state_ap": "N.J.", "slug": "286-middlesex-north-nj-site"}, "locations": [{"latitude": 40.577767999999999, "longitude": -74.496564399999997, "postal_code": "08846", "name": "", "street_address": "Mountain Avenue and Bound Brook Road"}]}, {"site": {"city": "Galesburg", "name": "Midwest Manufacturing Co.", "rating": 3, "state": "IL", "state_ap": "Ill.", "slug": "288-midwest-manufacturing-co"}, "locations": [{"latitude": 40.936912300000003, "longitude": -90.399470100000002, "postal_code": "61401", "name": "Former Midwest Manufacturing Center", "street_address": "1801 Monmouth Blvd."}]}, {"site": {"city": "Milwaukee", "name": "Milwaukee Airport", "rating": 3, "state": "WI", "state_ap": "Wis.", "slug": "290-milwaukee-airport"}, "locations": [{"latitude": 42.947482700000002, "longitude": -87.894873200000006, "postal_code": "53207", "name": "General Mitchell International Airport", "street_address": "5300 S Howell Ave"}]}, {"site": {"city": "Philadelphia", "name": "Minneapolis-Honeywell Regulator Co.", "rating": 3, "state": "PA", "state_ap": "Pa.", "slug": "291-minneapolis-honeywell-regulator-co"}, "locations": [{"latitude": 40.021253600000001, "longitude": -75.159742600000001, "postal_code": "19144", "name": "Former Minneapolis-Honeywell Regulator Co.", "street_address": "Wayne Avenue and Roberts Avenue"}]}, {"site": {"city": "Cincinnati", "name": "Mitchell Steel Co.", "rating": 2, "state": "OH", "state_ap": "Ohio", "slug": "292-mitchell-steel-co"}, "locations": []}, {"site": {"city": "Saginaw", "name": "Mitts & Merrill Co.", "rating": 3, "state": "MI", "state_ap": "Mich.", "slug": "293-mitts-merrill-co"}, "locations": []}, {"site": {"city": "Moab", "name": "Moab AEC Ore Buying Station", "rating": 2, "state": "UT", "state_ap": "Utah", "slug": "294-moab-aec-ore-buying-station"}, "locations": []}, {"site": {"city": "Richmond", "name": "Mobil Oil Corp.", "rating": 3, "state": "VA", "state_ap": "Va.", "slug": "295-mobil-oil-corp"}, "locations": [{"latitude": 37.524868900000001, "longitude": -77.443633700000007, "postal_code": "23224", "name": "", "street_address": "818 Perry Street"}]}, {"site": {"city": "Dayton", "name": "Monsanto Chemical Co.", "rating": 3, "state": "OH", "state_ap": "Ohio", "slug": "132-monsanto-chemical-co"}, "locations": [{"latitude": 39.761128399999997, "longitude": -84.182945599999996, "postal_code": "45402", "name": "Former Dayton Warehouse Facility", "street_address": "601 East Third Street "}]}, {"site": {"city": "Monticello", "name": "Monticello AEC Ore Buying Station", "rating": 2, "state": "UT", "state_ap": "Utah", "slug": "296-monticello-aec-ore-buying-station"}, "locations": []}, {"site": {"city": "Monticello", "name": "Monticello Mill Site", "rating": 2, "state": "UT", "state_ap": "Utah", "slug": "297-monticello-mill-site"}, "locations": [{"latitude": 37.863365600000002, "longitude": -109.33290820000001, "postal_code": "84535", "name": "78-Acre Former Mill Site", "street_address": "Southeast of central Monticello"}, {"latitude": 37.850977499999999, "longitude": -109.3295715, "postal_code": "84535", "name": "Disposal Cell", "street_address": "Approximately 1 mile south of the former mill site"}]}, {"site": {"city": "Monument Valley", "name": "Monument Valley Mill Site", "rating": 2, "state": "AZ", "state_ap": "Ariz.", "slug": "298-monument-valley-mill-site"}, "locations": [{"latitude": 36.9312033, "longitude": -109.8667241, "postal_code": "84531", "name": "Former Mill Site", "street_address": "Located on the Navajo Nation in northeastern Arizona, about 15 miles south of Mexican Hat, Utah"}]}, {"site": {"city": "Chicago", "name": "Morse Chemical Co.", "rating": 2, "state": "IL", "state_ap": "Ill.", "slug": "299-morse-chemical-co"}, "locations": [{"latitude": null, "longitude": null, "postal_code": "60603", "name": "", "street_address": "8 South Michigan Avenue "}]}, {"site": {"city": "Cleveland", "name": "Motch and Merryweather", "rating": 3, "state": "OH", "state_ap": "Ohio", "slug": "300-motch-and-merryweather"}, "locations": []}, {"site": {"city": "Miamisburg", "name": "Mound Laboratory", "rating": 2, "state": "OH", "state_ap": "Ohio", "slug": "301-mound-laboratory"}, "locations": [{"latitude": 39.630284899999999, "longitude": -84.287145800000005, "postal_code": "45342", "name": "", "street_address": "Located in Miamisburg, Ohio, approximately 10 miles southwest of Dayton. "}]}, {"site": {"city": "Chicago", "name": "Museum of Science and Industry", "rating": 3, "state": "IL", "state_ap": "Ill.", "slug": "302-museum-of-science-and-industry"}, "locations": [{"latitude": 41.7913146, "longitude": -87.581356600000007, "postal_code": "60637", "name": "Museum of Science and Industry East Pavillion", "street_address": "57th Street and Lake Shore Drive"}]}, {"site": {"city": "Cleveland", "name": "National Acme Machine Co.", "rating": 3, "state": "OH", "state_ap": "Ohio", "slug": "303-national-acme-machine-co"}, "locations": [{"latitude": 41.552421299999999, "longitude": -81.593768900000001, "postal_code": "44108", "name": "", "street_address": "170 East 131st Street"}]}, {"site": {"city": "Washington", "name": "National Bureau of Standards", "rating": 3, "state": "DC", "state_ap": "D.C.", "slug": "304-national-bureau-of-standards"}, "locations": [{"latitude": 38.943168999999997, "longitude": -77.064309499999993, "postal_code": "20008", "name": "", "street_address": "Van Ness Street"}]}, {"site": {"city": "New York", "name": "National Carbon Co.", "rating": 3, "state": "NY", "state_ap": "N.Y.", "slug": "305-national-carbon-co"}, "locations": []}, {"site": {"city": "Chicago", "name": "National Guard Armory", "rating": 1, "state": "IL", "state_ap": "Ill.", "slug": "108-national-guard-armory"}, "locations": [{"latitude": 41.798684299999998, "longitude": -87.606936899999994, "postal_code": "60615", "name": "", "street_address": "5200 S. Cottage Grove Avenue"}]}, {"site": {"city": "Denver", "name": "National Radium Institute, Bureau of Mines", "rating": 2, "state": "CO", "state_ap": "Colo.", "slug": "86-national-radium-institute-bureau-of-mines"}, "locations": []}, {"site": {"city": "Cambridge", "name": "National Research Corp.", "rating": 3, "state": "MA", "state_ap": "Mass.", "slug": "306-national-research-corp"}, "locations": [{"latitude": null, "longitude": null, "postal_code": "02142", "name": "", "street_address": "70 Memorial Drive"}]}, {"site": {"city": "Cleveland", "name": "National Smelting and Refining Co.", "rating": 3, "state": "OH", "state_ap": "Ohio", "slug": "307-national-smelting-and-refining-co"}, "locations": [{"latitude": null, "longitude": null, "postal_code": "44104", "name": "", "street_address": "6800 Grand Avenue"}]}, {"site": {"city": "Naturita", "name": "Naturita Mill Site", "rating": 2, "state": "CO", "state_ap": "Colo.", "slug": "308-naturita-mill-site"}, "locations": [{"latitude": 38.240607099999998, "longitude": -108.6116682, "postal_code": "81422", "name": "Former mill site", "street_address": "79-acre site two miles northwest of the city of Naturita, bounded by the San Miguel River on the east and State Highway 141 on the west."}]}, {"site": {"city": "Washington", "name": "Naval Gun Factory and Bureau of Ordnance", "rating": 2, "state": "DC", "state_ap": "D.C.", "slug": "309-naval-gun-factory-and-bureau-of-ordnance"}, "locations": [{"latitude": 38.874048899999998, "longitude": -76.994531800000004, "postal_code": "20374", "name": "", "street_address": "Anacostia River waterfront, near the 11th Street Bridge"}]}, {"site": {"city": "Albuquerque", "name": "Naval Office at the University of New Mexico", "rating": 3, "state": "NM", "state_ap": "N.M.", "slug": "310-naval-office-at-the-university-of-new-mexico"}, "locations": []}, {"site": {"city": " Silver Spring", "name": "Naval Ordnance Laboratory", "rating": 2, "state": "MD", "state_ap": "Md.", "slug": "311-naval-ordnance-laboratory"}, "locations": [{"latitude": null, "longitude": null, "postal_code": "", "name": "", "street_address": "Approximately 710-acre site near the intersection of New Hampshire Ave. and Lockwood Drive"}]}, {"site": {"city": "Centerline", "name": "Naval Ordnance Plant", "rating": 3, "state": "MI", "state_ap": "Mich.", "slug": "312-naval-ordnance-plant"}, "locations": []}, {"site": {"city": "Inyokern", "name": "Naval Ordnance Test Station", "rating": 3, "state": "CA", "state_ap": "Calif.", "slug": "313-naval-ordnance-test-station"}, "locations": [{"latitude": 35.6572976, "longitude": -117.55702359999999, "postal_code": "", "name": "Former Salt Wells Pilot Plant", "street_address": " Naval Air Weapons Station, China Lake"}]}, {"site": {"city": "Dahlgren", "name": "Naval Proving Ground", "rating": 3, "state": "VA", "state_ap": "Va.", "slug": "314-naval-proving-ground"}, "locations": []}, {"site": {"city": "Washington", "name": "Naval Research Laboratory", "rating": 2, "state": "DC", "state_ap": "D.C.", "slug": "315-naval-research-laboratory"}, "locations": [{"latitude": 38.822492099999998, "longitude": -77.017535600000002, "postal_code": "20375", "name": "", "street_address": "4555 Overlook Ave. SW"}]}, {"site": {"city": "Scotia", "name": "Naval Supply Depot, AEC Warehouse", "rating": 2, "state": "NY", "state_ap": "N.Y.", "slug": "316-naval-supply-depot-aec-warehouse"}, "locations": [{"latitude": 42.8383787, "longitude": -73.986684199999999, "postal_code": "?", "name": "", "street_address": "North of Route 5 (Amsterdam Rd.)"}]}, {"site": {"city": "Earle", "name": "Navy Ammunition Depot", "rating": 2, "state": "NJ", "state_ap": "N.J.", "slug": "317-navy-ammunition-depot"}, "locations": []}, {"site": {"city": "Las Vegas", "name": "Nellis Air Force Base", "rating": 2, "state": "NV", "state_ap": "Nev.", "slug": "318-nellis-air-force-base"}, "locations": [{"latitude": 36.252186600000002, "longitude": -114.969227, "postal_code": "", "name": "Former RW-21 Radioactive Waste Tank", "street_address": "Nellis Air Force Base, Area II"}, {"latitude": 36.252913399999997, "longitude": -114.9681434, "postal_code": "", "name": "Former RW-10 Dry Radioactive Waste Disposal Area", "street_address": "Nellis Air Force Base, Area II"}]}, {"site": {"city": " New Brunswick", "name": "New Brunswick, NJ, FUSRAP Site", "rating": 1, "state": "NJ", "state_ap": "N.J.", "slug": "319-new-brunswick-nj-site"}, "locations": [{"latitude": 40.470279699999999, "longitude": -74.476254100000006, "postal_code": "08901", "name": "", "street_address": "986 Jersey Avenue"}]}, {"site": {"city": "New Canaan", "name": "New Canaan Site", "rating": 3, "state": "CT", "state_ap": "Conn.", "slug": "320-new-canaan-site"}, "locations": []}, {"site": {"city": "Canaan", "name": "New England Lime Co.", "rating": 3, "state": "CT", "state_ap": "Conn.", "slug": "321-new-england-lime-co"}, "locations": [{"latitude": 42.026469800000001, "longitude": -73.321735700000005, "postal_code": "05018", "name": "", "street_address": "30 Daisy Hill Road "}]}, {"site": {"city": "Camden", "name": "New York Shipbuilding Corp", "rating": 3, "state": "NJ", "state_ap": "N.J.", "slug": "322-new-york-shipbuilding-corp"}, "locations": [{"latitude": 39.905467799999997, "longitude": -75.122744499999996, "postal_code": "", "name": "", "street_address": " South Yard, New York Shipbuilding facility on the Delaware River; Just upstream from the Walt Whitman Bridge"}]}, {"site": {"city": "New York", "name": "New York University", "rating": 3, "state": "NY", "state_ap": "N.Y.", "slug": "323-new-york-university"}, "locations": [{"latitude": 40.857876900000001, "longitude": -73.913847200000006, "postal_code": "10453", "name": "", "street_address": "Havemeyer Lab and Annex"}]}, {"site": {"city": "Lewiston", "name": "Niagara Falls Storage Site", "rating": 0, "state": "NY", "state_ap": "N.Y.", "slug": "324-niagara-falls-storage-site-ny"}, "locations": [{"latitude": 43.213329199999997, "longitude": -78.982882500000002, "postal_code": "14174", "name": "", "street_address": "191-acre site near Pletcher Road"}]}, {"site": {"city": "Lewiston", "name": "Niagara Falls Vicinity Properties", "rating": 1, "state": "NY", "state_ap": "N.Y.", "slug": "325-niagara-falls-vicinity-properties-ny"}, "locations": [{"latitude": 43.220905600000002, "longitude": -78.973730799999998, "postal_code": "14131", "name": "", "street_address": "Collection of properties generally bounded by Balmer Rd, Porter Center Road and Pletcher Road"}]}, {"site": {"city": "Norfolk", "name": "Norfolk Naval Station", "rating": 3, "state": "VA", "state_ap": "Va.", "slug": "326-norfolk-naval-station"}, "locations": []}, {"site": {"city": "Downey", "name": "North American Aviation, Inc.", "rating": 3, "state": "CA", "state_ap": "Calif.", "slug": "327-north-american-aviation-inc"}, "locations": [{"latitude": 33.924433999999998, "longitude": -118.1317669, "postal_code": "90242", "name": "Former Atomic Energy Research Department site", "street_address": "Lakewood Boulevard"}]}, {"site": {"city": "Raleigh", "name": "North Carolina State University", "rating": 3, "state": "NC", "state_ap": "N.C.", "slug": "328-north-carolina-state-university"}, "locations": []}, {"site": {"city": "Hawthorne", "name": "Northrup Aircraft Co Inc", "rating": 2, "state": "CA", "state_ap": "Calif.", "slug": "329-northrup-aircraft-co-inc"}, "locations": []}, {"site": {"city": "Worcester", "name": "Norton Co.", "rating": 3, "state": "MA", "state_ap": "Mass.", "slug": "330-norton-co"}, "locations": [{"latitude": 42.305633, "longitude": -71.803776099999993, "postal_code": "01606-2614", "name": "", "street_address": "1 New Bond Street"}]}, {"site": {"city": "White Plains", "name": "Nuclear Development Corp. of America", "rating": 2, "state": "NY", "state_ap": "N.Y.", "slug": "331-nuclear-development-corp-of-america"}, "locations": []}, {"site": {"city": "Apollo", "name": "Nuclear Materials and Equipment Corp. (NUMEC), Apollo Nuclear Fabrication Facility", "rating": 2, "state": "PA", "state_ap": "Pa.", "slug": "332-numec-apollo"}, "locations": [{"latitude": 40.586182800000003, "longitude": -79.567477499999995, "postal_code": "15613", "name": "", "street_address": "Between N. Warren Ave. and the Kiskimenetas River, near the intersection of North 6th St."}]}, {"site": {"city": "Cambridge (until 1958); West Concord (1958 and after)", "name": "Nuclear Metals, Inc.", "rating": 2, "state": "MA", "state_ap": "Mass.", "slug": "333-nuclear-metals-inc"}, "locations": [{"latitude": 42.4416607, "longitude": -71.421260500000002, "postal_code": "01742", "name": "", "street_address": "2229 Main St. (beginning in 1958)"}, {"latitude": 42.360807399999999, "longitude": -71.095504899999995, "postal_code": "", "name": "Former Hood Building", "street_address": "155 Massachusetts Ave. (until 1958)"}]}, {"site": {"city": "Wooster", "name": "OARDC", "rating": 2, "state": "OH", "state_ap": "Ohio", "slug": "337-oardc"}, "locations": []}, {"site": {"city": "Oak Ridge", "name": "Oak Ridge Gaseous Diffusion Plant", "rating": 2, "state": "TN", "state_ap": "Tenn.", "slug": "335-oak-ridge-gaseous-diffusion-plant"}, "locations": []}, {"site": {"city": "Oak Ridge", "name": "Oak Ridge, TN, Warehouse Site", "rating": 1, "state": "TN", "state_ap": "Tenn.", "slug": "336-oak-ridge-tn-warehouse-site"}, "locations": [{"latitude": 36.042729600000001, "longitude": -84.206652500000004, "postal_code": "37830", "name": "", "street_address": "Meco Lane (formerly Antwerp Lane), Melton Industrial Park"}]}, {"site": {"city": "Columbus", "name": "Ohio State University Metallurgical Engineering Experiment Station -OH 0-05", "rating": 2, "state": "OH", "state_ap": "Ohio", "slug": "338-ohio-state-university-metallurgical-engineering-experiment-station-oh-0-05"}, "locations": []}, {"site": {"city": "Cincinnati", "name": "Ohmart Corp.", "rating": 2, "state": "OH", "state_ap": "Ohio", "slug": "339-ohmart-corp"}, "locations": [{"latitude": 39.155633100000003, "longitude": -84.410124699999997, "postal_code": "45209", "name": "", "street_address": "4170 Rosslyn Drive"}]}, {"site": {"city": "New Haven", "name": "Olin Mathieson", "rating": 2, "state": "CT", "state_ap": "Conn.", "slug": "340-olin-mathieson"}, "locations": [{"latitude": 41.324823799999997, "longitude": -72.933206799999994, "postal_code": "06511", "name": "", "street_address": "71 Shelton Avenue"}]}, {"site": {"city": "Battle Creek", "name": "Oliver Corp.", "rating": 2, "state": "MI", "state_ap": "Mich.", "slug": "341-oliver-corp"}, "locations": [{"latitude": 42.314446799999999, "longitude": -85.166408799999999, "postal_code": "49014", "name": "", "street_address": "433 East Michigan Avenue; 423 East Michigan Avenue"}]}, {"site": {"city": "Albany", "name": "Oregon Metallurgical Corp", "rating": 3, "state": "OR", "state_ap": "Ore.", "slug": "342-oregon-metallurgical-corp"}, "locations": []}, {"site": {"city": "Cleveland", "name": "Osborn Manufacturing Co.", "rating": 3, "state": "OH", "state_ap": "Ohio", "slug": "343-osborn-co"}, "locations": [{"latitude": 41.522297000000002, "longitude": -81.654875899999993, "postal_code": "44114 ", "name": "", "street_address": "5401 Hamilton Ave."}]}, {"site": {"city": "Paducah", "name": "Paducah Gaseous Diffusion Plant", "rating": 2, "state": "KY", "state_ap": "Ky.", "slug": "344-paducah-gaseous-diffusion-plant"}, "locations": [{"latitude": 37.108491200000003, "longitude": -88.809267899999995, "postal_code": "?", "name": "", "street_address": "Approximately 3 miles south of the Ohio River and 12 miles west of Paducah"}]}, {"site": {"city": "Palmerton", "name": "Palmerton Ore Buying Site", "rating": 3, "state": "PA", "state_ap": "Pa.", "slug": "347-palmerton-ore-buying-site"}, "locations": [{"latitude": 40.811412199999999, "longitude": -75.5815451, "postal_code": "18071", "name": "Former Ore Storage Site", "street_address": "At the east end of Palmerton, just south of Aquashicola Creek"}]}, {"site": {"city": "Cook County", "name": "Palos Park Forest Preserve Site (A/Plot M)", "rating": 2, "state": "IL", "state_ap": "Ill.", "slug": "348-palos-park-forest-preserve-site-a-plot-m"}, "locations": [{"latitude": 41.7022002, "longitude": -87.912160799999995, "postal_code": "60480", "name": "Site A", "street_address": "Approximately 19 acres in the Palos Forest Preserve"}]}, {"site": {"city": "Amarillo", "name": "Pantex Sewage Reservoir", "rating": 2, "state": "TX", "state_ap": "Texas", "slug": "349-pantex-sewage-reservoir"}, "locations": []}, {"site": {"city": "Pasadena", "name": "Pasadena Chemical Corp. Pilot Plant", "rating": 2, "state": "TX", "state_ap": "Texas", "slug": "350-pasadena-chemical-corp-pilot-plant"}, "locations": [{"latitude": 29.7397937, "longitude": -95.193624600000007, "postal_code": "77506", "name": "", "street_address": "2001 Jackson Street"}]}, {"site": {"city": "Philadelphia", "name": "Paul and Beekman", "rating": 3, "state": "PA", "state_ap": "Pa.", "slug": "351-paul-and-beekman"}, "locations": []}, {"site": {"city": "Blairsville", "name": "Penn Central Transportation Co.", "rating": 2, "state": "PA", "state_ap": "Pa.", "slug": "352-penn-central-transportation-co"}, "locations": [{"latitude": 40.432870899999998, "longitude": -79.242513900000006, "postal_code": "", "name": "Disposal Cell", "street_address": "Just north of the Conemaugh River, and just east of Blairsville, Penn."}]}, {"site": {"city": "Philadelphia/Chestnut Hill", "name": "Penn Salt Manufacturing Co., Whitemarsh Research Laboratories", "rating": 3, "state": "PA", "state_ap": "Pa.", "slug": "354-penn-salt-manufacturing-co-whitemarsh-research-laboratories"}, "locations": []}, {"site": {"city": "?", "name": "Pennsylvania Disposal Site", "rating": 2, "state": "PA", "state_ap": "Pa.", "slug": "355-pennsylvania-disposal-site"}, "locations": []}, {"site": {"city": "Williamsport/Alvira", "name": "Pennsylvania Ordnance Works", "rating": 2, "state": "PA", "state_ap": "Pa.", "slug": "356-pennsylvania-ordnance-works"}, "locations": []}, {"site": {"city": "Webster Groves", "name": "Petrolite Corp.", "rating": 3, "state": "MO", "state_ap": "Mo.", "slug": "357-petrolite-corp"}, "locations": [{"latitude": 38.608179800000002, "longitude": -90.342762300000004, "postal_code": "63119", "name": "", "street_address": "369 Marshall Avenue"}]}, {"site": {"city": "New York", "name": "Pfaltz and Bauer, Inc.", "rating": 2, "state": "NY", "state_ap": "N.Y.", "slug": "358-pfaltz-and-bauer-inc"}, "locations": []}, {"site": {"city": "Richfield", "name": "Pfaltz and Bauer, Inc.", "rating": 2, "state": "NJ", "state_ap": "N.J.", "slug": "359-pfaltz-and-bauer-inc"}, "locations": []}, {"site": {"city": "Cheektowaga", "name": "Pfohl Brothers Landfill", "rating": 2, "state": "NY", "state_ap": "N.Y.", "slug": "360-pfohl-brothers-landfill"}, "locations": [{"latitude": 42.945217100000001, "longitude": -78.703483500000004, "postal_code": "14225", "name": "", "street_address": "Aero Drive, approximately one mile northeast of Buffalo International Airport"}]}, {"site": {"city": "Philadelphia", "name": "Philadelphia Navy Yard", "rating": 2, "state": "PA", "state_ap": "Pa.", "slug": "361-philadelphia-navy-yard"}, "locations": []}, {"site": {"city": "Dover / Rockaway Township", "name": "Picatinny Arsenal", "rating": 2, "state": "NJ", "state_ap": "N.J.", "slug": "362-picatinny-arsenal"}, "locations": [{"latitude": null, "longitude": null, "postal_code": "", "name": "", "street_address": "About 35 miles west of New York City"}]}, {"site": {"city": "New York", "name": "Pier 38", "rating": 2, "state": "NY", "state_ap": "N.Y.", "slug": "363-pier-38"}, "locations": []}, {"site": {"city": "Largo", "name": "Pinellas Plant General Electric Co", "rating": 2, "state": "FL", "state_ap": "Fla.", "slug": "364-pinellas-plant-general-electric-co"}, "locations": [{"latitude": 27.873834500000001, "longitude": -82.748359199999996, "postal_code": "33773", "name": "Building 100", "street_address": "Bryan Dairy Road and Belcher Road"}]}, {"site": {"city": "Piqua", "name": "Piqua Nuclear Power Facility", "rating": 2, "state": "OH", "state_ap": "Ohio", "slug": "365-piqua-nuclear-power-facility"}, "locations": [{"latitude": 40.131861999999998, "longitude": -84.234765699999997, "postal_code": "", "name": "", "street_address": "About 900 feet southeast of the Piqua municipal power station and 150 feet north of the city sewage treatment plant"}]}, {"site": {"city": "Chicago", "name": "Podbeilniac Corp.", "rating": 3, "state": "IL", "state_ap": "Ill.", "slug": "366-podbeilniac-corp"}, "locations": []}, {"site": {"city": "New York", "name": "Polytechnic Institute of Brooklyn", "rating": 3, "state": "NY", "state_ap": "N.Y.", "slug": "367-polytechnic-institute-of-brooklyn"}, "locations": [{"latitude": 40.694586100000002, "longitude": -73.984553399999996, "postal_code": "11201", "name": "Former Nichols Building", "street_address": "Bridge Street and Johnson Streets (now Tech Place)"}]}, {"site": {"city": "Middletown", "name": "Pratt and Whitney Corp., CANEL Facility", "rating": 2, "state": "CT", "state_ap": "Conn.", "slug": "368-pratt-and-whitney-corp-canel-facility"}, "locations": [{"latitude": 41.537733000000003, "longitude": -72.561358600000005, "postal_code": "06457", "name": "", "street_address": "1 Aircraft Road"}]}, {"site": {"city": "Bensenville", "name": "Precision Extrusion Co.", "rating": 3, "state": "IL", "state_ap": "Ill.", "slug": "369-precision-extrusion-co"}, "locations": [{"latitude": null, "longitude": null, "postal_code": "60106", "name": "", "street_address": "720 East Green Avenue"}]}, {"site": {"city": "Princeton", "name": "Princeton University", "rating": 3, "state": "NJ", "state_ap": "N.J.", "slug": "370-princeton-university"}, "locations": [{"latitude": 40.346825899999999, "longitude": -74.654836700000004, "postal_code": "08544", "name": "Former Palmer Physical Laboratory", "street_address": "Washington Road"}]}, {"site": {"city": "Cincinnati", "name": "Processes Research, Inc.", "rating": 3, "state": "OH", "state_ap": "Ohio", "slug": "371-processes-research-inc"}, "locations": [{"latitude": null, "longitude": null, "postal_code": "45219", "name": "", "street_address": "2905 Vernon Place"}]}, {"site": {"city": "Rio Arriba County", "name": "Project Gas Buggy Site", "rating": 2, "state": "NM", "state_ap": "N.M.", "slug": "372-project-gas-buggy-site"}, "locations": [{"latitude": 36.678327600000003, "longitude": -107.2086776, "postal_code": "", "name": "", "street_address": "Approximately 55 miles east of the city of Farmington and approximately 12 miles southwest of Dulce, New Mexico"}]}, {"site": {"city": "Eddy County", "name": "Project Gnome Site", "rating": 2, "state": "NM", "state_ap": "N.M.", "slug": "373-project-gnome-site"}, "locations": [{"latitude": 32.262999600000001, "longitude": -103.8668115, "postal_code": "", "name": "", "street_address": "Approximately 680-acre site 11 miles east of the Pecos Riverand 25 miles southeast of the city of Carlsbad"}]}, {"site": {"city": "Rio Blanco County", "name": "Project Rio Blanco", "rating": 3, "state": "CO", "state_ap": "Colo.", "slug": "374-project-rio-blanco"}, "locations": [{"latitude": 39.792999999999999, "longitude": -108.36799999999999, "postal_code": "81650", "name": "", "street_address": "About 52 miles north of Grand Junction, Colo."}]}, {"site": {"city": "Garfield County", "name": "Project Rulison", "rating": 3, "state": "CO", "state_ap": "Colo.", "slug": "375-project-rulison"}, "locations": [{"latitude": 39.405338700000001, "longitude": -107.94843040000001, "postal_code": "81635", "name": "", "street_address": "Southwest limb of the Piceance Creek Basin"}]}, {"site": {"city": "Lafayette", "name": "Purdue University Van Der Graaf Laboratory", "rating": 3, "state": "IN", "state_ap": "Ind.", "slug": "377-purdue-university"}, "locations": []}, {"site": {"city": "New York", "name": "Pyroferric Co", "rating": 3, "state": "NY", "state_ap": "N.Y.", "slug": "378-pyroferric-co"}, "locations": [{"latitude": null, "longitude": null, "postal_code": "?", "name": "", "street_address": "621 E. 216th Street"}]}, {"site": {"city": "Chicago", "name": "Quality Hardware and Machine Co.", "rating": 3, "state": "IL", "state_ap": "Ill.", "slug": "379-quality-hardware-and-machine-co"}, "locations": [{"latitude": 41.9880177, "longitude": -87.674257499999996, "postal_code": "60660", "name": "Former Quality Hardware and Machine Co. Site", "street_address": "5823/5849 North Ravenswood Avenue"}]}, {"site": {"city": "Cincinnati", "name": "Queen City Barrel Co.", "rating": 3, "state": "OH", "state_ap": "Ohio", "slug": "380-queen-city-barrel-co"}, "locations": [{"latitude": 39.106427600000004, "longitude": -84.550230900000003, "postal_code": "45204", "name": "", "street_address": "1937 South Street "}]}, {"site": {"city": "Concord", "name": "R Brew Co", "rating": 3, "state": "NH", "state_ap": "N.H.", "slug": "381-r-brew-co"}, "locations": []}, {"site": {"city": "Cincinnati/Norwood", "name": "R. K. LeBlond Machine Tool Co.", "rating": 3, "state": "OH", "state_ap": "Ohio", "slug": "383-r-k-leblond-machine-tool-co"}, "locations": [{"latitude": null, "longitude": null, "postal_code": "?", "name": "", "street_address": "Madison & Edwards Roads"}]}, {"site": {"city": "Chicago", "name": "R. Krasburg and Sons Manufacturing Co.", "rating": 3, "state": "IL", "state_ap": "Ill.", "slug": "382-r-krasburg-and-sons-manufacturing-co"}, "locations": [{"latitude": 41.916384000000001, "longitude": -87.690218999999999, "postal_code": "60647-4309", "name": "Former R. Krasburg and Sons Manufacturing Co.", "street_address": "2501 West Homer Street"}]}, {"site": {"city": "New York", "name": "Radiation Applications, Inc.", "rating": 3, "state": "NY", "state_ap": "N.Y.", "slug": "384-radiation-applications-inc"}, "locations": [{"latitude": null, "longitude": null, "postal_code": "10017", "name": "", "street_address": "370 Lexington Avenue"}]}, {"site": {"city": "New York", "name": "Radium Chemical Company, Inc", "rating": 2, "state": "NY", "state_ap": "N.Y.", "slug": "385-radium-chemical-company-inc"}, "locations": [{"latitude": 40.760499000000003, "longitude": -73.902007400000002, "postal_code": "11377", "name": "", "street_address": "60-06 27th Avenue, Queens"}]}, {"site": {"city": "Metuchen", "name": "Raritan Arsenal", "rating": 2, "state": "NJ", "state_ap": "N.J.", "slug": "387-raritan-arsenal"}, "locations": [{"latitude": 40.4961287, "longitude": -74.352717100000007, "postal_code": "08837", "name": "Former Raritan Arsenal", "street_address": "Approximately 3,200-acre site, bordered on the south by the Raritan River, on the north and northwest by Woodbridge Avenue, on the west by Mill Road and Patrol Road, and on the east by Clearview Avenue"}]}, {"site": {"city": "Ashtabula", "name": "Reactive Metals, Inc.", "rating": 2, "state": "OH", "state_ap": "Ohio", "slug": "388-reactive-metals-inc"}, "locations": [{"latitude": 41.8905174, "longitude": -80.776405999999994, "postal_code": "44004", "name": "Former Reactive Metals Site", "street_address": "Approximately 42.5-acre property at State Road and 21st Street"}]}, {"site": {"city": "Fort Belvoir", "name": "Reactor Site", "rating": 2, "state": "VA", "state_ap": "Va.", "slug": "389-reactor-site"}, "locations": []}, {"site": {"city": " Huntington", "name": "Reduction Pilot Plant (International Nickel Company)", "rating": 3, "state": "WV", "state_ap": "W.Va.", "slug": "390-reduction-pilot-plant"}, "locations": [{"latitude": 38.415829700000003, "longitude": -82.377738399999998, "postal_code": "25705", "name": "Former Reduction Pilot Plant", "street_address": "Cole Street at Altizer Ave."}]}, {"site": {"city": "Worcester", "name": "Reed Rolled Thread Co.", "rating": 3, "state": "MA", "state_ap": "Mass.", "slug": "391-reed-rolled-thread-co"}, "locations": []}, {"site": {"city": "Troy", "name": "Rensslaer Polytechnic Institute", "rating": 3, "state": "NY", "state_ap": "N.Y.", "slug": "392-rensslaer-polytechnic-institute"}, "locations": []}, {"site": {"city": " Madison", "name": "Research Products Corp.", "rating": 3, "state": "WI", "state_ap": "Wis.", "slug": "393-research-products-corp"}, "locations": [{"latitude": 43.083839099999999, "longitude": -89.370667299999994, "postal_code": "53703", "name": "", "street_address": "1015 E. Washington Ave."}]}, {"site": {"city": "Detroit", "name": "Revere Copper and Brass", "rating": 3, "state": "MI", "state_ap": "Mich.", "slug": "394-revere-copper-and-brass"}, "locations": [{"latitude": 42.302068900000002, "longitude": -83.093133800000004, "postal_code": "48209", "name": "", "street_address": "5851 West Jefferson Street"}]}, {"site": {"city": "Richmond", "name": "Reynolds Metals Co.", "rating": 3, "state": "VA", "state_ap": "Va.", "slug": "395-reynolds-metals-co"}, "locations": [{"latitude": 37.5251071, "longitude": -77.443872400000004, "postal_code": "23224", "name": "", "street_address": "818 Perry Street"}]}, {"site": {"city": "Rifle", "name": "Rifle Mill Site", "rating": 2, "state": "CO", "state_ap": "Colo.", "slug": "396-rifle-mill-site"}, "locations": [{"latitude": 39.529390499999998, "longitude": -107.7715604, "postal_code": "81650", "name": "Old Rifle site", "street_address": "Between U.S. 6 and the Colorado River, 0.3 miles east of Rifle"}, {"latitude": 39.526111399999998, "longitude": -107.8131722, "postal_code": "81650", "name": "New Rifle site", "street_address": "Between U.S. 6 and the Colorado River, approximately two miles southwest of Rifle"}]}, {"site": {"city": "Fremont County", "name": "Riverton AEC Ore Buying Station", "rating": 2, "state": "WY", "state_ap": "Wyo.", "slug": "397-riverton-aec-ore-buying-station"}, "locations": []}, {"site": {"city": "Fremont County", "name": "Riverton Mill Site", "rating": 2, "state": "WY", "state_ap": "Wyo.", "slug": "398-riverton-mill-site"}, "locations": [{"latitude": 42.996866199999999, "longitude": -108.4105759, "postal_code": "82501", "name": "", "street_address": "Approximately 140-acre property two miles southwest of the town of Riverton and within the boundaries of the Wind River Indian Reservation"}]}, {"site": {"city": "Springfield", "name": "Robbins and Myers Co", "rating": 3, "state": "OH", "state_ap": "Ohio", "slug": "399-robbins-and-myers-co"}, "locations": []}, {"site": {"city": "Hatboro", "name": "Roberts and Manders Corp", "rating": 3, "state": "PA", "state_ap": "Pa.", "slug": "400-roberts-and-manders-corp"}, "locations": []}, {"site": {"city": "Rock Island", "name": "Rock Island Arsenal", "rating": 3, "state": "IL", "state_ap": "Ill.", "slug": "401-rock-island-arsenal"}, "locations": [{"latitude": null, "longitude": null, "postal_code": "61299", "name": "", "street_address": "On the Mississippi River, just north of Moline, Ill."}]}, {"site": {"city": "New York", "name": "Rockefeller Institute for Medical Research", "rating": 3, "state": "NY", "state_ap": "N.Y.", "slug": "402-rockefeller-institute-for-medical-research"}, "locations": [{"latitude": null, "longitude": null, "postal_code": "10065", "name": "", "street_address": "York Avenue and E. 65th Street"}]}, {"site": {"city": "Denver", "name": "Rocky Mountain Research Laboratories", "rating": 3, "state": "CO", "state_ap": "Colo.", "slug": "403-rocky-mountain-research-laboratories"}, "locations": [{"latitude": 39.732993100000002, "longitude": -105.014971, "postal_code": "80204", "name": "", "street_address": "1020 Yuma Street"}]}, {"site": {"city": "Joplin", "name": "Rogers Iron Co.", "rating": 3, "state": "MO", "state_ap": "Mo.", "slug": "404-rogers-iron-co"}, "locations": [{"latitude": null, "longitude": null, "postal_code": "", "name": "", "street_address": "Rogers Iron appears to have operated at multiple sites in Joplin. Surviving documentation published by the Department of Energy appears to be insufficient to determine which location was used."}]}, {"site": {"city": "Philadelphia", "name": "Rohm and Haas Co", "rating": 3, "state": "PA", "state_ap": "Pa.", "slug": "405-rohm-and-haas-co"}, "locations": [{"latitude": 40.003852000000002, "longitude": -75.064012000000005, "postal_code": "19137", "name": "", "street_address": "5000 Richmond Street"}]}, {"site": {"city": "Glenville", "name": "Sacandaga", "rating": 3, "state": "NY", "state_ap": "N.Y.", "slug": "406-sacandaga"}, "locations": [{"latitude": null, "longitude": null, "postal_code": "12302", "name": "Former Sacandaga Atomic Power Laboratory", "street_address": "823 Sacandaga Road"}]}, {"site": {"city": "Salt Lake City", "name": "Salt Lake City AEC Ore Buying Station", "rating": 2, "state": "UT", "state_ap": "Utah", "slug": "407-salt-lake-city-aec-ore-buying-station"}, "locations": []}, {"site": {"city": "Salt Lake City", "name": "Salt Lake City Vitro Chemical", "rating": 2, "state": "UT", "state_ap": "Utah", "slug": "408-salt-lake-city-vitro-chemical"}, "locations": [{"latitude": 40.702235100000003, "longitude": -111.91017960000001, "postal_code": "84115", "name": "Former Processing Site Property", "street_address": "3300 South and Interstate 15"}]}, {"site": {"city": "Chatsworth (Los Angeles)", "name": "Santa Susana Field Laboratory", "rating": 3, "state": "CA", "state_ap": "Calif.", "slug": "409-santa-susana-field-laboratory"}, "locations": [{"latitude": 34.231405299999999, "longitude": -118.697166, "postal_code": "93064", "name": "", "street_address": "A 2,300 acre site located approximately 2 miles south of the City of Simi Valley and 30 miles northwest of downtown Los Angeles."}]}, {"site": {"city": "Savannah River", "name": "Savannah River Swamp", "rating": 2, "state": "SC", "state_ap": "S.C.", "slug": "410-savannah-river-swamp"}, "locations": [{"latitude": 33.0982208, "longitude": -81.611515199999999, "postal_code": "", "name": "", "street_address": "Just northeast of the South Carolina\u2013Georgia border, near Steel Creek"}]}, {"site": {"city": "Chicago", "name": "Sciaky Brothers, Inc.", "rating": 3, "state": "IL", "state_ap": "Ill.", "slug": "411-sciaky-brothers-inc"}, "locations": [{"latitude": 41.770515000000003, "longitude": -87.745009499999995, "postal_code": "60638", "name": "", "street_address": "4915 West 67th Street"}]}, {"site": {"city": "Tonawanda", "name": "Seaway Industrial Park", "rating": 0, "state": "NY", "state_ap": "N.Y.", "slug": "412-seaway-industrial-park"}, "locations": [{"latitude": 42.996760899999998, "longitude": -78.9206748, "postal_code": "14150", "name": "Seaway Area C", "street_address": "4825 River Road"}]}, {"site": {"city": "Romulus", "name": "Seneca Army Depot", "rating": 2, "state": "NY", "state_ap": "N.Y.", "slug": "413-seneca-army-depot"}, "locations": []}, {"site": {"city": "Seymour", "name": "Seymour Specialty Wire", "rating": 1, "state": "CT", "state_ap": "Conn.", "slug": "414-seymour-specialty-wire"}, "locations": [{"latitude": 41.400789799999998, "longitude": -73.072232, "postal_code": "06483", "name": "", "street_address": "15 Franklin Street"}]}, {"site": {"city": "Parks Township", "name": "Shallow Land Disposal Area", "rating": 0, "state": "PA", "state_ap": "Pa.", "slug": "416-shallow-land-disposal-area"}, "locations": [{"latitude": 40.6223867, "longitude": -79.5819245, "postal_code": "15690", "name": "", "street_address": "PA Route 66 and Kiskimere Road, an approximately 44-acre site"}]}, {"site": {"city": "Los Angeles", "name": "Shannon Luminous Metals Co.", "rating": 2, "state": "CA", "state_ap": "Calif.", "slug": "417-shannon-luminous-metals-co"}, "locations": [{"latitude": 34.090719999999997, "longitude": -118.3507917, "postal_code": "90046-6619", "name": "", "street_address": "7356 Santa Monica Boulevard"}]}, {"site": {"city": "Philadelphia", "name": "Sharples Corp", "rating": 3, "state": "PA", "state_ap": "Pa.", "slug": "418-sharples-corp"}, "locations": [{"latitude": null, "longitude": null, "postal_code": "19123", "name": "", "street_address": "201 Spring Garden Street"}]}, {"site": {"city": "Denver", "name": "Shattuck Chemical", "rating": 2, "state": "CO", "state_ap": "Colo.", "slug": "419-shattuck-chemical"}, "locations": [{"latitude": 39.683045999999997, "longitude": -104.990634, "postal_code": "80223", "name": "", "street_address": "1805 S. Bannock St."}]}, {"site": {"city": "Shippingport", "name": "Shippingport Atomic Power Plant", "rating": 2, "state": "PA", "state_ap": "Pa.", "slug": "421-shippingport-atomic-power-plant"}, "locations": [{"latitude": 40.621088499999999, "longitude": -80.435275700000005, "postal_code": "15050", "name": "Former Shippingport Atomic Power Plant", "street_address": "Next to the present-day Beaver Valley Power Station, which is at 100 Technology Blvd., approximately 25 miles west of Pittsburgh"}]}, {"site": {"city": "Shiprock", "name": "Shiprock AEC Ore Buying Station", "rating": 2, "state": "NM", "state_ap": "N.M.", "slug": "422-shiprock-aec-ore-buying-station"}, "locations": []}, {"site": {"city": "Shiprock", "name": "Shiprock Mill Site", "rating": 2, "state": "NM", "state_ap": "N.M.", "slug": "423-shiprock-mill-site"}, "locations": [{"latitude": 36.772324699999999, "longitude": -108.68882240000001, "postal_code": "", "name": "Former Mill Site", "street_address": "South of Shiprock, and west of the San Juan River"}, {"latitude": 36.769437000000003, "longitude": -108.6856037, "postal_code": "", "name": "Disposal Cell", "street_address": "South of Shiprock, and west of the San Juan River"}]}, {"site": {"city": "Shirley Basin", "name": "Shirley Basin AEC Ore Buying Station", "rating": 2, "state": "WY", "state_ap": "Wyo.", "slug": "424-shirley-basin-aec-ore-buying-station"}, "locations": [{"latitude": 42.331660800000002, "longitude": -106.19150569999999, "postal_code": "", "name": "Former Mill Site", "street_address": "Approximately 35 miles north of Medicine Bow, Wyo."}, {"latitude": 42.334738100000003, "longitude": -106.1990588, "postal_code": "", "name": "Disposal Site", "street_address": "West of the former Shirley Basin mill site"}]}, {"site": {"city": "Churchill County", "name": "Shoal Test Site", "rating": 3, "state": "NV", "state_ap": "Nev.", "slug": "425-shoal-test-site"}, "locations": [{"latitude": 39.200041900000002, "longitude": -118.3814623, "postal_code": "89406", "name": "", "street_address": "Near U.S. Highway 50, approximately 28 miles southeast of Fallon, Nev."}]}, {"site": {"city": "Norton", "name": "Shpack Landfill", "rating": 0, "state": "MA", "state_ap": "Mass.", "slug": "427-shpack-landfill"}, "locations": [{"latitude": 41.943459699999998, "longitude": -71.234601600000005, "postal_code": "02766", "name": "", "street_address": "68 Union Road"}]}, {"site": {"city": "Albany", "name": "Simmons Machine and Tool, Inc.", "rating": 3, "state": "NY", "state_ap": "N.Y.", "slug": "428-simmons-machine-and-tool-inc"}, "locations": [{"latitude": null, "longitude": null, "postal_code": "?", "name": "", "street_address": "1000 North Broadway / 1000 Broadway"}]}, {"site": {"city": "San Miguel County", "name": "Slick Rock Mill Site", "rating": 2, "state": "CO", "state_ap": "Colo.", "slug": "430-slick-rock-mill-site"}, "locations": [{"latitude": 38.046587600000002, "longitude": -108.9097968, "postal_code": "81325", "name": "Slick Rock West", "street_address": "Approximately 22 miles north of Dove Creek, Colo."}, {"latitude": 38.043047399999999, "longitude": -108.89425079999999, "postal_code": "81325", "name": "Slick Rock East", "street_address": "Approximately 22 miles north of Dove Creek, Colo."}]}, {"site": {"city": "Birmingham", "name": "Southern Research Institute", "rating": 2, "state": "AL", "state_ap": "Ala.", "slug": "431-southern-research-institute"}, "locations": [{"latitude": null, "longitude": null, "postal_code": "35205", "name": "", "street_address": "917 South 20th Street"}]}, {"site": {"city": "Galena", "name": "Spencer Chemical Co.", "rating": 2, "state": "KS", "state_ap": "Kan.", "slug": "432-spencer-chemical-co"}, "locations": [{"latitude": 37.119048599999999, "longitude": -94.675118499999996, "postal_code": "66739", "name": "Former Spencer Chemical Co.", "street_address": "8545 SE Jayhawk Dr."}]}, {"site": {"city": "Danbury", "name": "Sperry Products, Inc.", "rating": 3, "state": "CT", "state_ap": "Conn.", "slug": "435-sperry-products-inc"}, "locations": [{"latitude": 41.389909899999999, "longitude": -73.428577799999999, "postal_code": "06810", "name": "", "street_address": "44 Shelter Rock Road"}]}, {"site": {"city": "Converse County", "name": "Spook Site", "rating": 2, "state": "WY", "state_ap": "Wyo.", "slug": "436-spook-site"}, "locations": [{"latitude": null, "longitude": null, "postal_code": "", "name": "", "street_address": "Approximately 19-acre area roughly 32 miles north of Glenrock"}]}, {"site": {"city": "Robertson", "name": "St. Louis Airport", "rating": 0, "state": "MO", "state_ap": "Mo.", "slug": "437-st-louis-airport"}, "locations": [{"latitude": 38.759531299999999, "longitude": -90.356905400000002, "postal_code": "63042", "name": "", "street_address": "James S. McDonnell Boulevard and Banshee Road"}]}, {"site": {"city": "Hazelwood", "name": "St. Louis Airport Site Vicinity Properties", "rating": 0, "state": "MO", "state_ap": "Mo.", "slug": "549-st-louis-airport-site-vicinity-properties"}, "locations": [{"latitude": 38.760229899999999, "longitude": -90.352254400000007, "postal_code": "", "name": "\"Ballfields\" Area", "street_address": "Eva Avenue and James S. McDonnell Boulevard"}]}, {"site": {"city": "St. Louis", "name": "St. Louis Downtown Site", "rating": 0, "state": "MO", "state_ap": "Mo.", "slug": "438-st-louis-downtown-site"}, "locations": [{"latitude": 38.662050800000003, "longitude": -90.189862700000006, "postal_code": "63147", "name": "", "street_address": "Multiple, near the Mississippi River, north of downtown St. Louis"}]}, {"site": {"city": "St. Louis", "name": "St. Louis University", "rating": 3, "state": "MO", "state_ap": "Mo.", "slug": "439-st-louis-university"}, "locations": []}, {"site": {"city": "Linden", "name": "Standard Oil Development Co. of NJ", "rating": 3, "state": "NJ", "state_ap": "N.J.", "slug": "440-standard-oil-development-co-of-nj"}, "locations": [{"latitude": 40.646074300000002, "longitude": -74.232398200000006, "postal_code": "07036", "name": "Former entrance to large, multiblock site", "street_address": "1900 E. Linden Avenue"}]}, {"site": {"city": "Farmington Hills", "name": "Star Cutter Corp.", "rating": 3, "state": "MI", "state_ap": "Mich.", "slug": "441-star-cutter-corp"}, "locations": [{"latitude": 42.4708215, "longitude": -83.388031999999995, "postal_code": "48335", "name": "Former Star Cutter Property", "street_address": "34500 Grand River Ave."}]}, {"site": {"city": "Port Richmond", "name": "Staten Island Warehouse", "rating": 2, "state": "NY", "state_ap": "N.Y.", "slug": "442-staten-island-warehouse"}, "locations": [{"latitude": 40.640114699999998, "longitude": -74.142189799999997, "postal_code": "10302", "name": "", "street_address": "Richmond Terrace and John Street"}]}, {"site": {"city": "Richmond", "name": "Stauffer Metals, Inc.", "rating": 3, "state": "CA", "state_ap": "Calif.", "slug": "443-stauffer-metals-inc"}, "locations": [{"latitude": 37.912705099999997, "longitude": -122.3316372, "postal_code": "94804", "name": "", "street_address": "1201 South 47th Street"}]}, {"site": {"city": "Bridgeport", "name": "Summerville Tube Co", "rating": 3, "state": "PA", "state_ap": "Pa.", "slug": "444-summerville-tube-co"}, "locations": []}, {"site": {"city": "Carnegie", "name": "Superior Steel Co.", "rating": 0, "state": "PA", "state_ap": "Pa.", "slug": "445-superior-steel-co"}, "locations": [{"latitude": 40.3969089, "longitude": -80.098842300000001, "postal_code": "15106", "name": "Building 23, which housed uranium-processing facilities", "street_address": "500 Superior Street"}]}, {"site": {"city": "Dallas", "name": "Sutton, Steele and Steele Co.", "rating": 3, "state": "TX", "state_ap": "Texas", "slug": "446-sutton-steele-and-steele-co"}, "locations": [{"latitude": 32.783427400000001, "longitude": -96.761636300000006, "postal_code": "75223", "name": "", "street_address": "1031 Haskell Ave."}]}, {"site": {"city": "Harvey", "name": "Swenson Evaporator Company", "rating": 3, "state": "IL", "state_ap": "Ill.", "slug": "447-swenson-evaporator-company"}, "locations": []}, {"site": {"city": "Hicksville", "name": "Sylvania Corning Nuclear Corp. \u2013\u00a0Hicksville Plant", "rating": 0, "state": "NY", "state_ap": "N.Y.", "slug": "448-sylvania-corning-nuclear-corp-hicksville-plant"}, "locations": [{"latitude": 40.768138200000003, "longitude": -73.549628600000005, "postal_code": "11801", "name": "", "street_address": "Site includes three contiguous properties: 70 Cantiague Rock Road, 100 Cantiague Rock Road, and 140 Cantiague Rock Road"}]}, {"site": {"city": "Bayside", "name": "Sylvania Corning Nuclear Corp.-Bayside Laboratories", "rating": 3, "state": "NY", "state_ap": "N.Y.", "slug": "449-sylvania-corning-nuclear-corp-bayside-laboratories"}, "locations": [{"latitude": 40.787619999999997, "longitude": -73.786285199999995, "postal_code": "11368", "name": "Former Bayside Laboratory Site", "street_address": "208-220 Willets Point Blvd."}]}, {"site": {"city": "Syracuse", "name": "Syracuse University", "rating": 3, "state": "NY", "state_ap": "N.Y.", "slug": "451-syracuse-university"}, "locations": []}, {"site": {"city": "Los Alamos", "name": "TA-1 Manhattan Laboratory", "rating": 3, "state": "NM", "state_ap": "N.M.", "slug": "452-ta-1-manhattan-laboratory"}, "locations": [{"latitude": 35.879216499999998, "longitude": -106.304559, "postal_code": "", "name": "Former Main Technical Area (TA-1) ", "street_address": "Approximately 40 acres near the intersection of Oppenheimer Dr. and Trinity Dr."}]}, {"site": {"city": "Lamar County", "name": "Tatum Salt Dome Test Site", "rating": 2, "state": "MS", "state_ap": "Miss.", "slug": "453-tatum-salt-dome-test-site"}, "locations": [{"latitude": 31.142317599999998, "longitude": -89.570079399999997, "postal_code": "39455", "name": "", "street_address": "1,470-acre tract of land, about 21 miles southwest of Hattiesburg, Miss."}]}, {"site": {"city": "Milford", "name": "Tech-Art, Inc.", "rating": 2, "state": "OH", "state_ap": "Ohio", "slug": "454-tech-art-inc"}, "locations": []}, {"site": {"city": "Pittsburgh", "name": "Teledyne-Columbia-Summerville", "rating": 3, "state": "PA", "state_ap": "Pa.", "slug": "455-teledyne-columbia-summerville"}, "locations": []}, {"site": {"city": "Muscle Shoals", "name": "Tennessee Valley Authority", "rating": 3, "state": "AL", "state_ap": "Ala.", "slug": "456-tennessee-valley-authority"}, "locations": [{"latitude": 34.7694616, "longitude": -87.645752999999999, "postal_code": "35660", "name": "Former Research and Engineering Building, Pilot Plant, Laboratories", "street_address": "West of Helton Drive and south of Wilson Dam Highway"}]}, {"site": {"city": "Texas City", "name": "Texas City Chemicals, Inc.", "rating": 2, "state": "TX", "state_ap": "Texas", "slug": "457-texas-city-chemicals-inc"}, "locations": [{"latitude": 29.364307100000001, "longitude": -94.937711800000002, "postal_code": "77554", "name": "", "street_address": "Grant St. and Farm to Market Road 519"}]}, {"site": {"city": "Wood County", "name": "The Carborundum Co., Inc.", "rating": 2, "state": "WV", "state_ap": "W.Va.", "slug": "458-the-carborundum-co-inc"}, "locations": [{"latitude": 39.2501344, "longitude": -81.6856784, "postal_code": "?", "name": "Disposal Cell", "street_address": "Near the intersection of Dupont Rd. and Foster/Northwest Dr."}]}, {"site": {"city": "Niagara Falls", "name": "Titanium Alloys Manufacturing Co.", "rating": 3, "state": "NY", "state_ap": "N.Y.", "slug": "460-titanium-alloys-manufacturing-co"}, "locations": [{"latitude": 43.129071199999998, "longitude": -79.038827800000007, "postal_code": "14305", "name": "", "street_address": "4511 Hyde Park Blvd."}]}, {"site": {"city": "Henderson", "name": "Titanium Metals Corp Div. of NLO", "rating": 3, "state": "NV", "state_ap": "Nev.", "slug": "461-titanium-metals-corp-div-of-nlo"}, "locations": []}, {"site": {"city": "Waterloo", "name": "Titus Metals", "rating": 3, "state": "IA", "state_ap": "Iowa", "slug": "462-titus-metals"}, "locations": []}, {"site": {"city": "Cleveland", "name": "Tocco Induction Heating Division, Ohio Crankshaft Co.", "rating": 3, "state": "OH", "state_ap": "Ohio", "slug": "463-tocco-induction-heating-division-ohio-crankshaft-co"}, "locations": []}, {"site": {"city": "Tonawanda", "name": "Tonawanda Landfill and Mudflats Area", "rating": 0, "state": "NY", "state_ap": "N.Y.", "slug": "548-tonawanda-landfill-and-mudflats-area"}, "locations": [{"latitude": 42.999417600000001, "longitude": -78.888510100000005, "postal_code": "14150", "name": "", "street_address": "North of Interstate 290 and west of the railroad tracks parallel to Military Road"}]}, {"site": {"city": "Tonawanda", "name": "Tonawanda North FUSRAP Site", "rating": 1, "state": "NY", "state_ap": "N.Y.", "slug": "43-tonawanda-north"}, "locations": [{"latitude": 42.9918367, "longitude": -78.9201008, "postal_code": "14150", "name": "Unit 1", "street_address": "State Highway 266, East of Interstate Highway 190"}, {"latitude": 43.000287999999998, "longitude": -78.917364899999995, "postal_code": "14150", "name": "Unit 2", "street_address": "State Highway 266, East of Interstate Highway 190"}]}, {"site": {"city": "Torrington", "name": "Torrington Co.", "rating": 3, "state": "CT", "state_ap": "Conn.", "slug": "465-torrington-co"}, "locations": [{"latitude": 41.810856000000001, "longitude": -73.1243111, "postal_code": "06790", "name": "", "street_address": "70 North Street"}]}, {"site": {"city": "Boston", "name": "Tracerlab, Inc.", "rating": 2, "state": "MA", "state_ap": "Mass.", "slug": "466-tracerlab-inc"}, "locations": [{"latitude": null, "longitude": null, "postal_code": "02110", "name": "", "street_address": "130 High Street "}]}, {"site": {"city": "LaCross", "name": "Trane Co", "rating": 3, "state": "WI", "state_ap": "Wis.", "slug": "467-trane-co"}, "locations": []}, {"site": {"city": "New York", "name": "Transcontinental Machine and Tool Co.", "rating": 2, "state": "NY", "state_ap": "N.Y.", "slug": "468-transcontinental-machine-and-tool-co"}, "locations": [{"latitude": 40.724325399999998, "longitude": -74.001622400000002, "postal_code": "10012", "name": "", "street_address": "154 Spring Street"}]}, {"site": {"city": "Socorro County", "name": "Trinity Test Site", "rating": 2, "state": "NM", "state_ap": "N.M.", "slug": "469-trinity-test-site"}, "locations": [{"latitude": 33.677289500000001, "longitude": -106.4753659, "postal_code": "?", "name": "Trinity Site Ground Zero", "street_address": "Approximately 30 miles west of Carrizozo"}]}, {"site": {"city": "Pittsburgh", "name": "Try Street Terminal", "rating": 3, "state": "PA", "state_ap": "Pa.", "slug": "470-try-street-terminal"}, "locations": [{"latitude": 40.435913800000002, "longitude": -79.995830100000006, "postal_code": "15219", "name": "Former Try Street Terminal", "street_address": "620 Second Ave. (at Try Street)"}]}, {"site": {"city": "Tuba City", "name": "Tuba City AEC Ore Buying Station", "rating": 2, "state": "AZ", "state_ap": "Ariz.", "slug": "471-tuba-city-aec-ore-buying-station"}, "locations": [{"latitude": 36.145435499999998, "longitude": -111.1344732, "postal_code": "86045", "name": "Former Ore-Buying Station", "street_address": "On the site of the former Tuba City uranium mill"}]}, {"site": {"city": "Tuba City", "name": "Tuba City Mill Site", "rating": 2, "state": "AZ", "state_ap": "Ariz.", "slug": "472-tuba-city-mill-site"}, "locations": [{"latitude": 36.145435499999998, "longitude": -111.1344732, "postal_code": "86045", "name": "Disposal Cell / Former Mill Site", "street_address": "Approximately 5 miles east of Tuba City and 85 miles northeast of Flagstaff"}]}, {"site": {"city": "Wallington", "name": "Tube Reducing Co.", "rating": 3, "state": "NJ", "state_ap": "N.J.", "slug": "473-tube-reducing-co"}, "locations": []}, {"site": {"city": "Medford", "name": "Tufts College", "rating": 3, "state": "MA", "state_ap": "Mass.", "slug": "474-tufts-college"}, "locations": []}, {"site": {"city": "New Brighton", "name": "Twin Cities Ammunition", "rating": 2, "state": "MN", "state_ap": "Minn.", "slug": "475-twin-cities-ammunition"}, "locations": []}, {"site": {"city": "St Louis", "name": "Tyson Valley Powder Farm", "rating": 2, "state": "MO", "state_ap": "Mo.", "slug": "476-tyson-valley-powder-farm"}, "locations": [{"latitude": 38.5226829, "longitude": -90.557169000000002, "postal_code": "", "name": "", "street_address": "St. Louis County"}]}, {"site": {"city": "Burlington", "name": "U S Pipe and Foundry Co", "rating": 3, "state": "NJ", "state_ap": "N.J.", "slug": "481-u-s-pipe-and-foundry-co"}, "locations": []}, {"site": {"city": "Bruceton", "name": "U.S. Bureau of Mines", "rating": 3, "state": "PA", "state_ap": "Pa.", "slug": "477-u-s-bureau-of-mines"}, "locations": []}, {"site": {"city": "Salt Lake City", "name": "U.S. Bureau of Mines", "rating": 3, "state": "UT", "state_ap": "Utah", "slug": "478-u-s-bureau-of-mines"}, "locations": []}, {"site": {"city": "Reno", "name": "U.S. Bureau of Mines, Reno Station", "rating": 3, "state": "NV", "state_ap": "Nev.", "slug": "479-u-s-bureau-of-mines-reno-station"}, "locations": [{"latitude": 39.5441912, "longitude": -119.814758, "postal_code": "89557", "name": "", "street_address": "1605 Evans Avenue"}]}, {"site": {"city": "San Francisco", "name": "U.S. Naval Radiological Defense Laboratory", "rating": 2, "state": "CA", "state_ap": "Calif.", "slug": "480-u-s-naval-radiological-defense-laboratory"}, "locations": [{"latitude": 37.726243199999999, "longitude": -122.3731743, "postal_code": "94124", "name": "", "street_address": "Building 815, Crisp Road, Hunters Point"}]}, {"site": {"city": "Orange", "name": "U.S. Radium Corp.", "rating": 2, "state": "NJ", "state_ap": "N.J.", "slug": "482-u-s-radium-corp"}, "locations": [{"latitude": 40.781644300000004, "longitude": -74.228118100000003, "postal_code": "07050", "name": "Former U.S. Radium Corporation facility", "street_address": "Alden Place and High Street"}]}, {"site": {"city": "McKeesport", "name": "U.S. Steel Co., National Tube Division, Christy Park Works", "rating": 3, "state": "PA", "state_ap": "Pa.", "slug": "483-us-steel-co-national-tube-division-christy-park-works"}, "locations": [{"latitude": 40.334590200000001, "longitude": -79.852141599999996, "postal_code": "15132-7054", "name": "", "street_address": "2214 Walnut St."}]}, {"site": {"city": "Oak Ridge", "name": "Union Carbide and Carbon Co.", "rating": 2, "state": "TN", "state_ap": "Tenn.", "slug": "484-union-carbide-and-carbon-co"}, "locations": []}, {"site": {"city": "New York", "name": "Union Mines Development Corp", "rating": 3, "state": "NY", "state_ap": "N.Y.", "slug": "485-union-mines-development-corp"}, "locations": []}, {"site": {"city": "Painesville", "name": "Uniroyal Chemical Co.", "rating": 0, "state": "OH", "state_ap": "Ohio", "slug": "486-uniroyal-chemical-co"}, "locations": [{"latitude": 41.756725099999997, "longitude": -81.237459999999999, "postal_code": "44077", "name": "Former Uniroyal Chemical Co. Site", "street_address": "720 Fairport-Nursery Road"}]}, {"site": {"city": "Middlesex", "name": "United Lead Co.", "rating": 2, "state": "NJ", "state_ap": "N.J.", "slug": "487-united-lead-co"}, "locations": []}, {"site": {"city": "Middlesex", "name": "United Lead Co., Middlesex Sampling Plant", "rating": 0, "state": "NJ", "state_ap": "N.J.", "slug": "287-united-lead-co-middlesex-sampling-plant"}, "locations": [{"latitude": 40.5691639, "longitude": -74.492004100000003, "postal_code": "08846", "name": "", "street_address": "Approximately 9.6-acre tract of land at 239 Mountain Avenue"}]}, {"site": {"city": "Hematite/Festus", "name": "United Nuclear Corp.", "rating": 2, "state": "MO", "state_ap": "Mo.", "slug": "488-united-nuclear-corp"}, "locations": [{"latitude": 38.209609, "longitude": -90.474633600000004, "postal_code": "63028", "name": "", "street_address": "3300 State Road P"}]}, {"site": {"city": "Tucson", "name": "University of Arizona Southwest Experiment Station Buildings", "rating": 3, "state": "AZ", "state_ap": "Ariz.", "slug": "489-university-of-arizona-southwest-experiment-station-buildings"}, "locations": [{"latitude": 32.2325947, "longitude": -110.9533996, "postal_code": "85721", "name": "The Old Engineering Building at University of Arizona", "street_address": "1127 E. North Campus"}, {"latitude": 32.242987900000003, "longitude": -110.9494645, "postal_code": "", "name": "Former Warehouse", "street_address": "Chauncey Street and Vine Avenue"}]}, {"site": {"city": "Berkeley", "name": "University of California Chemistry Building and Radiation Lab", "rating": 2, "state": "CA", "state_ap": "Calif.", "slug": "491-university-of-california-chemistry-building-and-radiation-lab"}, "locations": [{"latitude": 37.876660700000002, "longitude": -122.24753579999999, "postal_code": "94720", "name": "Former Outdoor Radioactive Waste Storage Area (Building 5)", "street_address": "Near McMilan Road"}]}, {"site": {"city": "Davis", "name": "University of California, Davis", "rating": 2, "state": "CA", "state_ap": "Calif.", "slug": "490-university-of-california-davis"}, "locations": [{"latitude": 38.519033299999997, "longitude": -121.7557669, "postal_code": "95620", "name": "Former Laboratory for Energy-Related Health Research", "street_address": "Roughly 15-acre property, east of Old Davis Rd., between Feline Rd. and Levee Rd."}]}, {"site": {"city": "Chicago", "name": "University of Chicago Metallurgical Laboratory", "rating": 1, "state": "IL", "state_ap": "Ill.", "slug": "109-university-of-chicago-metallurgical-laboratory"}, "locations": [{"latitude": 41.792479700000001, "longitude": -87.601036100000002, "postal_code": "60637", "name": "Former site of the first controlled, self-sustaining nuclear reaction", "street_address": "East side of Ellis Avenue between 56th and 57th Streets"}]}, {"site": {"city": "Cincinnati", "name": "University of Cincinnati", "rating": 3, "state": "OH", "state_ap": "Ohio", "slug": "492-university-of-cincinnati"}, "locations": [{"latitude": 39.133157699999998, "longitude": -84.517556799999994, "postal_code": "", "name": "Old Chemistry Building", "street_address": "University of Cincinnati campus"}]}, {"site": {"city": "Denver", "name": "University of Denver Research Institute", "rating": 2, "state": "CO", "state_ap": "Colo.", "slug": "493-university-of-denver-research-institute"}, "locations": []}, {"site": {"city": "Gainesville", "name": "University of Florida", "rating": 2, "state": "FL", "state_ap": "Fla.", "slug": "494-university-of-florida"}, "locations": []}, {"site": {"city": "Miami", "name": "University of Miami", "rating": 3, "state": "FL", "state_ap": "Fla.", "slug": "496-university-of-miami"}, "locations": []}, {"site": {"city": "Ann Arbor", "name": "University of Michigan", "rating": 3, "state": "MI", "state_ap": "Mich.", "slug": "497-university-of-michigan"}, "locations": []}, {"site": {"city": "Reno", "name": "University of Nevada", "rating": 3, "state": "NV", "state_ap": "Nev.", "slug": "498-university-of-nevada"}, "locations": [{"latitude": 39.539457800000001, "longitude": -119.81452609999999, "postal_code": " 89557", "name": "Mackay School of Mines Building", "street_address": "University of Nevada campus"}]}, {"site": {"city": "South Bend", "name": "University of Notre Dame", "rating": 3, "state": "IN", "state_ap": "Ind.", "slug": "499-university-of-notre-dame"}, "locations": []}, {"site": {"city": "Philadelphia", "name": "University of Pennsylvania", "rating": 3, "state": "PA", "state_ap": "Pa.", "slug": "500-university-of-pennsylvania"}, "locations": []}, {"site": {"city": "Pittsburgh", "name": "University of Pittsburgh", "rating": 3, "state": "PA", "state_ap": "Pa.", "slug": "501-university-of-pittsburgh"}, "locations": []}, {"site": {"city": "Rochester", "name": "University of Rochester Medical Lab", "rating": 3, "state": "NY", "state_ap": "N.Y.", "slug": "502-university-of-rochester-medical-lab"}, "locations": []}, {"site": {"city": "Salt Lake City", "name": "University of Utah Medical Research Center", "rating": 3, "state": "UT", "state_ap": "Utah", "slug": "503-university-of-utah-medical-research-center"}, "locations": []}, {"site": {"city": "Charlottesville", "name": "University of Virginia Physics Department", "rating": 3, "state": "VA", "state_ap": "Va.", "slug": "504-university-of-virginia-physics-department"}, "locations": [{"latitude": 38.046807000000001, "longitude": -78.491821000000002, "postal_code": "22903", "name": "", "street_address": "University of Virginia campus"}]}, {"site": {"city": "Seattle", "name": "University of Washington", "rating": 3, "state": "WA", "state_ap": "Wash.", "slug": "505-university-of-washington"}, "locations": [{"latitude": 47.652797399999997, "longitude": -122.3044561, "postal_code": "98105", "name": "Former Nuclear Reactor Building", "street_address": "Near the intersection of Jefferson Road and Mason Road"}]}, {"site": {"city": "Montrose County", "name": "Uravan Mill Site", "rating": 2, "state": "CO", "state_ap": "Colo.", "slug": "506-uravan-mill-site"}, "locations": [{"latitude": 38.360551399999999, "longitude": -108.75454209999999, "postal_code": "81422", "name": "", "street_address": "West of state highway 141. Approximately 15 miles northeast of Naturita, Colo."}]}, {"site": {"city": "Utica", "name": "Utica Drop Forge and Tool Corp.", "rating": 3, "state": "NY", "state_ap": "N.Y.", "slug": "507-utica-drop-forge-and-tool-corp"}, "locations": []}, {"site": {"city": "Buffalo", "name": "Utica Street Warehouse", "rating": 3, "state": "NY", "state_ap": "N.Y.", "slug": "508-utica-street-warehouse"}, "locations": [{"latitude": 42.911067899999999, "longitude": -78.875562799999997, "postal_code": "14222", "name": "", "street_address": "240 West Utica Street"}]}, {"site": {"city": "Bridgeville", "name": "Vanadium Corp. of America", "rating": 2, "state": "PA", "state_ap": "Pa.", "slug": "509-vanadium-corp-of-america"}, "locations": [{"latitude": 40.367393800000002, "longitude": -80.098106799999996, "postal_code": "15017", "name": "", "street_address": "Mayer Street"}]}, {"site": {"city": "Blue Island", "name": "Vapofier Corp.", "rating": 3, "state": "IL", "state_ap": "Ill.", "slug": "510-vapofier-corp"}, "locations": [{"latitude": null, "longitude": null, "postal_code": "60406", "name": "", "street_address": "11957 Vincennes Avenue"}]}, {"site": {"city": "Beverly", "name": "Ventron Corporation", "rating": 1, "state": "MA", "state_ap": "Mass.", "slug": "67-ventron-corporation"}, "locations": [{"latitude": 42.540470300000003, "longitude": -70.888808499999996, "postal_code": "01915", "name": "", "street_address": "10-12 Congress Street"}]}, {"site": {"city": "Nichols", "name": "Virginia-Carolina Chemical Corp.", "rating": 2, "state": "FL", "state_ap": "Fla.", "slug": "511-virginia-carolina-chemical-corp"}, "locations": [{"latitude": 27.880660599999999, "longitude": -82.030985799999996, "postal_code": "33860", "name": "", "street_address": "Nichols Road, west of intersection with Anderson Road"}]}, {"site": {"city": "West Orange", "name": "Vitro Corp. of America", "rating": 3, "state": "NJ", "state_ap": "N.J.", "slug": "512-vitro-corp-of-america"}, "locations": [{"latitude": 40.817014399999998, "longitude": -74.252471799999995, "postal_code": "07052", "name": "", "street_address": "200 Pleasant Valley Way"}]}, {"site": {"city": "Chattanooga", "name": "Vitro Corp. of America", "rating": 2, "state": "TN", "state_ap": "Tenn.", "slug": "513-vitro-corp-of-america"}, "locations": [{"latitude": 35.086260600000003, "longitude": -85.247557200000003, "postal_code": "37406", "name": "", "street_address": "4000 North Hawthorne Street"}]}, {"site": {"city": "Canonsburg", "name": "Vitro Manufacturing (Canonsburg)", "rating": 2, "state": "PA", "state_ap": "Pa.", "slug": "514-vitro-manufacturing-canonsburg"}, "locations": [{"latitude": 40.2561733, "longitude": -80.1993619, "postal_code": "15317", "name": "", "street_address": "Strabene Avenue, between Chartiers Creek and the Pittsburgh and Ohio Railroad tracks"}]}, {"site": {"city": "Dayton", "name": "Vulcan Tool Co.", "rating": 2, "state": "OH", "state_ap": "Ohio", "slug": "515-vulcan-tool-co"}, "locations": []}, {"site": {"city": "Joliet", "name": "W.E. Pratt Manufacturing Co.", "rating": 3, "state": "IL", "state_ap": "Ill.", "slug": "518-we-pratt-manufacturing-co"}, "locations": [{"latitude": 41.525558699999998, "longitude": -88.0637756, "postal_code": "60432", "name": "", "street_address": "18 Henderson Street"}]}, {"site": {"city": "Ridgewood", "name": "W.R. Grace Co., Agricultural Chemicals Division", "rating": 2, "state": "FL", "state_ap": "Fla.", "slug": "519-wr-grace-co-agricultural-chemicals-div"}, "locations": [{"latitude": 27.9032564, "longitude": -81.917106500000003, "postal_code": "33830", "name": "", "street_address": "3400 State Road 60"}]}, {"site": {"city": "Erwin", "name": "W.R. Grace and Company", "rating": 2, "state": "TN", "state_ap": "Tenn.", "slug": "516-wr-grace-and-company"}, "locations": [{"latitude": 36.130505999999997, "longitude": -82.432508600000006, "postal_code": "37650", "name": "", "street_address": "1205 Banner Hill Road"}]}, {"site": {"city": "Baltimore", "name": "W.R. Grace and Company", "rating": 0, "state": "MD", "state_ap": "Md.", "slug": "517-wr-grace-and-company"}, "locations": [{"latitude": 39.214428400000003, "longitude": -76.571535299999994, "postal_code": "21226", "name": "", "street_address": "5500 Chemical Road, a 260-acre site"}]}, {"site": {"city": "Newport", "name": "Wabash River Ordnance Works", "rating": 3, "state": "IN", "state_ap": "Ind.", "slug": "520-wabash-river-ordnance-works"}, "locations": []}, {"site": {"city": "Albany", "name": "Wah Chang", "rating": 2, "state": "OR", "state_ap": "Ore.", "slug": "521-wah-chang"}, "locations": [{"latitude": 44.661808100000002, "longitude": -123.0653442, "postal_code": "97321", "name": "", "street_address": "1600 NE Old Salem Road"}]}, {"site": {"city": " Indianapolis", "name": "Wash-Rite Co.", "rating": 3, "state": "IN", "state_ap": "Ind.", "slug": "522-wash-rite-co"}, "locations": [{"latitude": 39.785956200000001, "longitude": -86.141156199999998, "postal_code": "46202", "name": "Former Wash-Rite Co. Site", "street_address": "1410 Cornell Avenue"}]}, {"site": {"city": "St. Louis", "name": "Washington University", "rating": 3, "state": "MO", "state_ap": "Mo.", "slug": "523-washington-university"}, "locations": [{"latitude": 38.649929499999999, "longitude": -90.307030499999996, "postal_code": "", "name": "Former Cyclotron Building", "street_address": "North-central edge of the present-day Danforth Campus"}]}, {"site": {"city": "Watertown", "name": "Watertown Arsenal", "rating": 2, "state": "MA", "state_ap": "Mass.", "slug": "524-watertown-arsenal"}, "locations": [{"latitude": 42.360998700000003, "longitude": -71.159236100000001, "postal_code": "?", "name": "", "street_address": "(Former) Building 421"}, {"latitude": 42.3611662, "longitude": -71.1556882, "postal_code": "", "name": "", "street_address": "(Former) Building 41"}, {"latitude": 42.362862700000001, "longitude": -71.159572100000005, "postal_code": "", "name": "", "street_address": "(Former) Building 34"}]}, {"site": {"city": "Wayne", "name": "Wayne FUSRAP Site", "rating": 1, "state": "NJ", "state_ap": "N.J.", "slug": "525-wayne-site"}, "locations": [{"latitude": 40.969627699999997, "longitude": -74.270779300000001, "postal_code": "07470", "name": "", "street_address": "868 Black Oak Ridge Road"}]}, {"site": {"city": "Weldon Spring", "name": "Weldon Spring Chemical Co.", "rating": 2, "state": "MO", "state_ap": "Mo.", "slug": "526-weldon-spring-chemical-co"}, "locations": []}, {"site": {"city": "Middletown", "name": "Wesleyan University", "rating": 3, "state": "CT", "state_ap": "Conn.", "slug": "527-wesleyan-university"}, "locations": [{"latitude": 41.554154199999999, "longitude": -72.656020499999997, "postal_code": "06457", "name": "", "street_address": "222 Church Street"}]}, {"site": {"city": "Bridgeton", "name": "West Lake Landfill", "rating": 2, "state": "MO", "state_ap": "Mo.", "slug": "528-west-lake-landfill"}, "locations": [{"latitude": 38.7701858, "longitude": -90.442467800000003, "postal_code": "63044", "name": "", "street_address": "13570 St. Charles Rock Road"}]}, {"site": {"city": "West Milton", "name": "West Milton Reactor Site", "rating": 2, "state": "NY", "state_ap": "N.Y.", "slug": "529-west-milton-reactor-site"}, "locations": []}, {"site": {"city": "West Valley", "name": "West Valley Demonstration Project", "rating": 2, "state": "NY", "state_ap": "N.Y.", "slug": "530-west-valley-demonstration-project"}, "locations": [{"latitude": 42.449137, "longitude": -78.654586399999999, "postal_code": "14171", "name": "", "street_address": "10282 Rock Springs Road"}]}, {"site": {"city": "Cleveland", "name": "Western Reserve University", "rating": 3, "state": "OH", "state_ap": "Ohio", "slug": "531-western-reserve-university"}, "locations": [{"latitude": 41.5036366, "longitude": -81.607760799999994, "postal_code": "44106", "name": "", "street_address": "Rockefeller (Physics) Building"}]}, {"site": {"city": "East Pittsburgh", "name": "Westinghouse Atomic Power Development Plant", "rating": 3, "state": "PA", "state_ap": "Pa.", "slug": "533-westinghouse-atomic-power-development-plant"}, "locations": []}, {"site": {"city": "East Pittsburgh", "name": "Westinghouse Atomic Power Div.", "rating": 3, "state": "PA", "state_ap": "Pa.", "slug": "534-westinghouse-atomic-power-div"}, "locations": [{"latitude": 40.397793299999996, "longitude": -79.835840300000001, "postal_code": "?", "name": "", "street_address": "Route 30 (Forrest Hills)"}]}, {"site": {"city": "Bloomfield", "name": "Westinghouse Electric Corp. (New Jersey)", "rating": 3, "state": "NJ", "state_ap": "N.J.", "slug": "535-westinghouse-electric-corp-new-jersey"}, "locations": [{"latitude": 40.781708500000001, "longitude": -74.1950188, "postal_code": "07003", "name": "", "street_address": "One Westinghouse Plaza - Former Building 7"}]}, {"site": {"city": "Detroit", "name": "Westinghouse Naval Ordnance", "rating": 3, "state": "MI", "state_ap": "Mich.", "slug": "536-westinghouse-naval-ordnance"}, "locations": []}, {"site": {"city": "Cheswick", "name": "Westinghouse Nuclear Fuels Division", "rating": 3, "state": "PA", "state_ap": "Pa.", "slug": "532-westinghouse-nuclear-fuels-division"}, "locations": [{"latitude": 40.549529800000002, "longitude": -79.812256099999999, "postal_code": "15024", "name": "Former site of Building 8, Plutonium Fuels Development Laboratory", "street_address": "1000 Wright Way"}]}, {"site": {"city": "White Canyon", "name": "White Canyon AEC Ore Buying Station", "rating": 2, "state": "UT", "state_ap": "Utah", "slug": "537-white-canyon-aec-ore-buying-station"}, "locations": []}, {"site": {"city": "Buffalo", "name": "Wilson Warehouse", "rating": 2, "state": "NY", "state_ap": "N.Y.", "slug": "538-wilson-warehouse"}, "locations": [{"latitude": null, "longitude": null, "postal_code": "14210", "name": "", "street_address": "290 Larkin St."}]}, {"site": {"city": "Winchester", "name": "Winchester Engineering and Analytical Center", "rating": 3, "state": "MA", "state_ap": "Mass.", "slug": "539-winchester-engineering-and-analytical-center"}, "locations": [{"latitude": 42.470904900000001, "longitude": -71.132400599999997, "postal_code": "01890", "name": "", "street_address": "109 Holton Street"}]}, {"site": {"city": "Woburn", "name": "Woburn Landfill", "rating": 3, "state": "MA", "state_ap": "Mass.", "slug": "540-woburn-landfill"}, "locations": []}, {"site": {"city": "Queens", "name": "Wolff-Alport and Co.", "rating": 2, "state": "NY", "state_ap": "N.Y.", "slug": "541-wolff-alport-and-co"}, "locations": [{"latitude": 40.692401599999997, "longitude": -73.902497600000004, "postal_code": "11385", "name": "", "street_address": "1127 Irving Avenue"}]}, {"site": {"city": "Detroit", "name": "Wolverine Tube Division", "rating": 3, "state": "MI", "state_ap": "Mich.", "slug": "542-wolverine-tube-division"}, "locations": [{"latitude": 42.306989000000002, "longitude": -83.120654400000006, "postal_code": "48209", "name": "", "street_address": "1411 Central Avenue"}]}, {"site": {"city": "Greene County/Montgomery County", "name": "Wright Air Development Center", "rating": 2, "state": "OH", "state_ap": "Ohio", "slug": "543-wright-air-development-center"}, "locations": [{"latitude": 39.7787869, "longitude": -84.087977899999998, "postal_code": "?", "name": "Building 470 and Decommissioned Reactor", "street_address": "Wright-Patterson Air Force Base, Area B"}]}, {"site": {"city": "Chicago", "name": "Wyckoff Drawn Steel Co.", "rating": 3, "state": "IL", "state_ap": "Ill.", "slug": "544-wyckoff-drawn-steel-co"}, "locations": [{"latitude": 41.834772200000003, "longitude": -87.705777100000006, "postal_code": "60623", "name": "Former Wyckoff Steel Plant", "street_address": "3200 South Kedzie Avenue"}]}, {"site": {"city": "Newark", "name": "Wyckoff Steel Co.", "rating": 3, "state": "NJ", "state_ap": "N.J.", "slug": "545-wyckoff-steel-co"}, "locations": []}, {"site": {"city": "New Haven", "name": "Yale Heavy Ion Linear Accelerator", "rating": 3, "state": "CT", "state_ap": "Conn.", "slug": "546-yale-heavy-ion-linear-accelerator"}, "locations": [{"latitude": 41.319054600000001, "longitude": -72.921389500000004, "postal_code": "06511", "name": "", "street_address": "Yale University Campus"}]}, {"site": {"city": "Youngsville", "name": "Youngsville Warehouse", "rating": 2, "state": "NC", "state_ap": "N.C.", "slug": "547-youngsville-warehouse"}, "locations": [{"latitude": null, "longitude": null, "postal_code": "27596", "name": "", "street_address": "Near N.C. Route 96"}]}]